Address Part 1,Address Part 2,Full Address,Latitude,Longitude
21282 Athens-Limestone Blvd.,"Athens, Alabama 35613","21282 Athens-Limestone Blvd., Athens, Alabama 35613",34.7847678,-86.9418476
1617  South College Street,"Auburn, Alabama 36832","1617  South College Street, Auburn, Alabama 36832",32.5763561,-85.4964405
1627 Opelika Road,"Auburn, Alabama 36830-2871","1627 Opelika Road, Auburn, Alabama 36830-2871",32.6266835,-85.447228
2221 Richard Arrington Junior Blvd.,"Birmingham, Alabama 35203-1103","2221 Richard Arrington Junior Blvd., Birmingham, Alabama 35203-1103",33.5256677,-86.8087974
6350  Interstate Drive,"Cottondale, Alabama 35453","6350  Interstate Drive, Cottondale, Alabama 35453",33.1748009,-87.4503719
1151 Ross Clark Cir,"Dothan, Alabama 36301","1151 Ross Clark Cir, Dothan, Alabama 36301",31.2127894,-85.3601394
219 Interstate Drive,"Greenville, Alabama 36037","219 Interstate Drive, Greenville, Alabama 36037",31.8560856,-86.6352276
5909 University Dr,"Huntsville , Alabama 35806","5909 University Dr, Huntsville , Alabama 35806",34.74001,-86.6644532
6910  Buc-ee's Blvd,"Leeds , Alabama 35094","6910  Buc-ee's Blvd, Leeds , Alabama 35094",33.5442494,-86.5880574
3201 Airport Blvd,"Mobile, Alabama 36606-3202","3201 Airport Blvd, Mobile, Alabama 36606-3202",30.6741175,-88.1220613
2567 Berryhill Road,"Montgomery, Alabama 36117","2567 Berryhill Road, Montgomery, Alabama 36117",32.3596995,-86.1627596
1000 Jemison Lane,"Mountain Brook, Alabama 35223","1000 Jemison Lane, Mountain Brook, Alabama 35223",33.4861525,-86.7730835
1105 Oxford Exchange Blvd,"Oxford, Alabama 36203-0000","1105 Oxford Exchange Blvd, Oxford, Alabama 36203-0000",33.607745,-85.783986
20403  Co Road 68,"Robertsdale , Alabama 36567","20403  Co Road 68, Robertsdale , Alabama 36567",30.6342316,-87.6766348
905 Steele Station Road,"Steele, Alabama 35987","905 Steele Station Road, Steele, Alabama 35987",33.9336341,-86.1897862
1009 Fulton Ave,"Gardendale, Alabama 35071","1009 Fulton Ave, Gardendale, Alabama 35071",33.5746076,-86.778965
43540 Kleeb Loop,"Soldotna, Alaska 99669","43540 Kleeb Loop, Soldotna, Alaska 99669",60.4947341,-151.0450486
416 S Watson Rd,"Buckeye, Arizona 85326-3419","416 S Watson Rd, Buckeye, Arizona 85326-3419",33.4432993,-112.5571083
2453 E. Florence Blvd,"Casa Grande, Arizona 85194-5429","2453 E. Florence Blvd, Casa Grande, Arizona 85194-5429",32.8790623,-111.681602
3075 W Ray Rd,"Chandler , Arizona 85226","3075 W Ray Rd, Chandler , Arizona 85226",33.3192932,-111.8955202
14925 Cordes Lakes Rd,"Mayer, Arizona 86333","14925 Cordes Lakes Rd, Mayer, Arizona 86333",34.3273703,-112.1182594
11 Frontage Road North,"Ehrenberg, Arizona 85334","11 Frontage Road North, Ehrenberg, Arizona 85334",33.60347,-114.5239287
2650 South Beulah Blvd,"Flagstaff, Arizona 86001-8924","2650 South Beulah Blvd, Flagstaff, Arizona 86001-8924",35.1746115,-111.6629119
826 826 W Pima St.,"Gila Bend, Arizona 85337-3033","826 826 W Pima St., Gila Bend, Arizona 85337-3033",32.9437704,-112.7346022
6755 West Brandon Lane,"Glendale, Arizona 85305","6755 West Brandon Lane, Glendale, Arizona 85305",33.5358023,-112.262839
2096 Navajo Blvd,"Holbrook, Arizona 86025-2100","2096 Navajo Blvd, Holbrook, Arizona 86025-2100",34.9232391,-110.1454943
120  West Andy Devine Avenue #2,"Kingman, Arizona 86401","120  West Andy Devine Avenue #2, Kingman, Arizona 86401",35.1891073,-114.0589283
789 W Beale St,"Kingman, Arizona 86401-5942","789 W Beale St, Kingman, Arizona 86401-5942",35.1911516,-114.0659903
1855 South Stapley Drive,"Mesa, Arizona 85204","1855 South Stapley Drive, Mesa, Arizona 85204",33.3808205,-111.8062281
3906 West New River Road,"New River, Arizona 85087","3906 West New River Road, New River, Arizona 85087",33.9149992,-112.1442995
600 Clubhouse Drive,"Page, Arizona 86040","600 Clubhouse Drive, Page, Arizona 86040",36.9247138,-111.4687862
142 AZ-260,"Payson, Arizona 85541","142 AZ-260, Payson, Arizona 85541",34.2421059,-111.3212515
5715 North 19th Avenue,"Phoenix, Arizona 85015","5715 North 19th Avenue, Phoenix, Arizona 85015",33.5208515,-112.097379
2805 Agua Fria Fwy,"Phoenix, Arizona 85027-3938","2805 Agua Fria Fwy, Phoenix, Arizona 85027-3938",33.6676963,-112.1222962
3121 W Peoria Ave,"Phoenix, Arizona 85029","3121 W Peoria Ave, Phoenix, Arizona 85029",33.5813664,-112.1269323
2502 East Camelback Road,"Phoenix, Arizona 85016-4254","2502 East Camelback Road, Phoenix, Arizona 85016-4254",33.5104189,-112.0275164
7000 E Mayo Blvd,"Phoenix, Arizona 85054","7000 E Mayo Blvd, Phoenix, Arizona 85054",33.6557178,-111.9263133
350-370 Main Event Ln,"Quartzsite, Arizona 85346","350-370 Main Event Ln, Quartzsite, Arizona 85346",33.6627101,-114.2400828
1451 West Main Street,"Quartzsite, Arizona 85346-5359","1451 West Main Street, Quartzsite, Arizona 85346-5359",33.661226,-114.2418824
8740  East Shea Boulevard,"Scottsdale, Arizona 85260","8740  East Shea Boulevard, Scottsdale, Arizona 85260",33.583272,-111.8933755
15059 N. Scottsdale Rd,"Scottsdale, Arizona 85254-2421","15059 N. Scottsdale Rd, Scottsdale, Arizona 85254-2421",33.6232755,-111.9230919
15205 North Kierland Boulevard,"Scottsdale, Arizona 85254","15205 North Kierland Boulevard, Scottsdale, Arizona 85254",33.6248406,-111.9276565
7000 AZ-179,"Sedona, Arizona 86351","7000 AZ-179, Sedona, Arizona 86351",34.7745531,-111.7651924
9250 South Avenue 40E,"Tacna, Arizona 85352","9250 South Avenue 40E, Tacna, Arizona 85352",32.6978828,-113.9532945
5000  South Arizona Mills Circle,"Tempe, Arizona 85282","5000  South Arizona Mills Circle, Tempe, Arizona 85282",33.3820989,-111.964918
2905 East Skyline Drive,"Tucson, Arizona 85718","2905 East Skyline Drive, Tucson, Arizona 85718",32.3241344,-110.9305456
3844  West River Road,"Tucson , Arizona 85741","3844  West River Road, Tucson , Arizona 85741",32.321806,-111.045249
9255 S Rita Rd,"Tucson, Arizona 85747","9255 S Rita Rd, Tucson, Arizona 85747",32.084178,-110.8033245
149 State Route 64,"Tusayan, Arizona 86023","149 State Route 64, Tusayan, Arizona 86023",35.9701038,-112.1269235
12683 White Hills Road,"Willow Beach, Arizona 86445","12683 White Hills Road, Willow Beach, Arizona 86445",35.7001766,-114.476603
155 N Tegner,"Wickenburg, Arizona 85390-3427","155 N Tegner, Wickenburg, Arizona 85390-3427",33.9701637,-112.7309943
1251 Virginia Avenue,"Willcox, Arizona 85643-1022","1251 Virginia Avenue, Willcox, Arizona 85643-1022",32.2702051,-109.8460215
11235 South Fortuna Road,"Yuma, Arizona 85367","11235 South Fortuna Road, Yuma, Arizona 85367",32.667665,-114.4434093
310 North Madison Avenue,"Yuma, Arizona 85364-1417","310 North Madison Avenue, Yuma, Arizona 85364-1417",32.7277027,-114.6203828
1401 Pinecrest Street,"Brinkley, Arkansas 72021","1401 Pinecrest Street, Brinkley, Arkansas 72021",34.9049781,-91.2005498
3920  Southwest Drive,"Jonesboro , Arkansas 72404","3920  Southwest Drive, Jonesboro , Arkansas 72404",35.7966852,-90.7305529
11201 Bass Pro Parkway,"Little Rock, Arkansas 72210-3056","11201 Bass Pro Parkway, Little Rock, Arkansas 72210-3056",34.6618148,-92.4077975
898 W Monroe Ave,"Lowell, Arkansas 72745","898 W Monroe Ave, Lowell, Arkansas 72745",36.2552541,-94.152976
3202 Pence Lane,"Ozark, Arkansas 72949","3202 Pence Lane, Ozark, Arkansas 72949",35.5238039,-93.8640589
500 Pointer Trail,"Van Buren, Arkansas 72956","500 Pointer Trail, Van Buren, Arkansas 72956",35.4584152,-94.3559108
333 S Abbott Ave,"Milpitas, California 95035","333 S Abbott Ave, Milpitas, California 95035",37.425579,-121.9141627
65340 Los Lobos Rd,"San Ardo, California 93450","65340 Los Lobos Rd, San Ardo, California 93450",35.974584,-120.9002228
523 South Shore Center West,"Alameda, California 94501","523 South Shore Center West, Alameda, California 94501",37.7595885,-122.2535532
201 E Bay State St,"Alhambra, California 91801","201 E Bay State St, Alhambra, California 91801",34.0947102,-118.1235146
2400 W Commonwealth Ave,"Alhambra, California 91803","2400 W Commonwealth Ave, Alhambra, California 91803",34.0864937,-118.1498855
1200  West 12th Street,"Alturas, California 96101","1200  West 12th Street, Alturas, California 96101",41.4952078,-120.5601599
156 N Imperial Hwy,"Anaheim, California 92807","156 N Imperial Hwy, Anaheim, California 92807",33.8526851,-117.7902465
2404 East Katella Avenue,"Anaheim, California 92806","2404 East Katella Avenue, Anaheim, California 92806",33.8052252,-117.882285
8148 East Santa Ana Canyon Road,"Anaheim, California 92808","8148 East Santa Ana Canyon Road, Anaheim, California 92808",33.8652921,-117.7470499
5769 Lone Tree Way,"Antioch, California 94531","5769 Lone Tree Way, Antioch, California 94531",37.9640015,-121.7377635
2182 CA-4,"Arnold, California 95223","2182 CA-4, Arnold, California 95223",38.2397987,-120.3638752
1158 West Branch Street,"Arroyo Grande, California 93420","1158 West Branch Street, Arroyo Grande, California 93420",35.1261526,-120.5960305
900  900 El Camino Real,"Atascadero, California 93422","900  900 El Camino Real, Atascadero, California 93422",35.5279439,-120.7036227
6950 6950 El Camino Real,"Atascadero, California 93422-4209","6950 6950 El Camino Real, Atascadero, California 93422-4209",35.4863749,-120.6656444
13437 Bowman Road,"Auburn, California 95603","13437 Bowman Road, Auburn, California 95603",38.9262879,-121.0581974
809 N Azusa Ave,"Azusa, California 91702","809 N Azusa Ave, Azusa, California 91702",34.1364404,-117.9082398
71808 Baker Blvd,"Baker, California 92309-0000","71808 Baker Blvd, Baker, California 92309-0000",35.2629068,-116.0799904
29541 Stockdale Hwy,"Bakersfield, California 93314-9644","29541 Stockdale Hwy, Bakersfield, California 93314-9644",35.3545204,-119.3313863
3100  Camino Del Rio Court,"Bakersfield , California 93308","3100  Camino Del Rio Court, Bakersfield , California 93308",35.3820855,-119.0463505
9741  South Enos Lane,"Bakersfield , California 93311","9741  South Enos Lane, Bakersfield , California 93311",35.2669398,-119.2533255
2812 Lenwood Rd.,"Barstow, California 92311-9589","2812 Lenwood Rd., Barstow, California 92311-9589",34.8497858,-117.0849041
2796 Tanger Way,"Barstow, California 92311","2796 Tanger Way, Barstow, California 92311",34.8460311,-117.0845567
1540 E. 2nd Street,"Beaumont, California 92223","1540 E. 2nd Street, Beaumont, California 92223",33.9248674,-116.9521269
4416 Gage Avenue,"Bell, California 92345","4416 Gage Avenue, Bell, California 92345",33.9780057,-118.1885783
48123 Highway 1,"Big Sur, California 93920","48123 Highway 1, Big Sur, California 93920",36.2294009,-121.7596619
151 South Warren Street,"Bishop, California 93514","151 South Warren Street, Bishop, California 93514",37.3607398,-118.3970922
175 North Madrona Avenue,"Brea, California 92821","175 North Madrona Avenue, Brea, California 92821",33.9220826,-117.8995157
1065 Brea Mall,"Brea, California 92821","1065 Brea Mall, Brea, California 92821",33.9153422,-117.8864509
2455 Sand Creek Road,"Brentwood, California 94513","2455 Sand Creek Road, Brentwood, California 94513",37.9453567,-121.7397611
6940 Beach Boulevard,"Buena Park, California 90621","6940 Beach Boulevard, Buena Park, California 90621",33.8599195,-117.9970162
495 North Third Street,"Burbank, California 91502","495 North Third Street, Burbank, California 91502",34.1849124,-118.3117213
1009 N San Fernando Blvd,"Burbank, California 91504","1009 N San Fernando Blvd, Burbank, California 91504",34.187114,-118.318541
677 N Victory Blvd,"Burbank, California 91506","677 N Victory Blvd, Burbank, California 91506",34.1795322,-118.3212183
20673 Tracy Ave.,"Buttonwillow, California 93206-9782","20673 Tracy Ave., Buttonwillow, California 93206-9782",35.400244,-119.3975212
24551  West Lerdo Highway,"Buttonwillow, California 93206","24551  West Lerdo Highway, Buttonwillow, California 93206",35.4918493,-119.5437576
48540  Morongo Trail,"Cabazon, California 92230","48540  Morongo Trail, Cabazon, California 92230",33.9237924,-116.8041264
4799 Commons Way,"Calabasas, California 91302-3372","4799 Commons Way, Calabasas, California 91302-3372",34.1535199,-118.6466648
3501 Robin Lane,"Cameron Park, California 95682","3501 Robin Lane, Cameron Park, California 95682",38.6558092,-120.9646781
5620 Paseo Del Norte,"Carlsbad, California 92008","5620 Paseo Del Norte, Carlsbad, California 92008",33.1260893,-117.3212469
7710-7770 El Camino Real,"Carlsbad, California 92009-8562","7710-7770 El Camino Real, Carlsbad, California 92009-8562",33.0845584,-117.2675198
2  Civic Plaza Dr,"Carson, California 90745","2  Civic Plaza Dr, Carson, California 90745",33.8322431,-118.2586333
29461 The Old Road,"Castaic, California 91384","29461 The Old Road, Castaic, California 91384",34.4521845,-118.6165422
239 Los Cerritos Center,"Cerritos, California 90703-5422","239 Los Cerritos Center, Cerritos, California 90703-5422",33.8620402,-118.093979
9185 De Soto Ave,"Chatsworth, California 91311","9185 De Soto Ave, Chatsworth, California 91311",34.2378866,-118.5890716
1951 East 20th Street,"Chico, California 95928","1951 East 20th Street, Chico, California 95928",39.725987,-121.8025266
13920 City Center Drive,"Chino Hills, California 91709","13920 City Center Drive, Chino Hills, California 91709",34.0012778,-117.7307398
1225 East Robertson Boulevard,"Chowchilla, California 93610","1225 East Robertson Boulevard, Chowchilla, California 93610",37.125554,-120.2473514
505 Telegraph Canyon Road,"Chula Vista, California 91910","505 Telegraph Canyon Road, Chula Vista, California 91910",32.629458,-117.0405147
910 Eastlake Parkway,"Chula Vista, California 91914","910 Eastlake Parkway, Chula Vista, California 91914",32.6509579,-116.9677653
18558 Gale Avenue,"City of Industry, California 91748","18558 Gale Avenue, City of Industry, California 91748",33.9947257,-117.8989707
870 Herndon Avenue,"Clovis, California 93612","870 Herndon Avenue, Clovis, California 93612",36.8370483,-119.6987569
24553 W Dorris Avenue,"Coalinga, California 93210","24553 W Dorris Avenue, Coalinga, California 93210",36.2531944,-120.2389156
100 Citadel Drive,"Commerce, California 90040","100 Citadel Drive, Commerce, California 90040",34.005773,-118.1510339
1975 Diamond Boulevard,"Concord, California 94520","1975 Diamond Boulevard, Concord, California 94520",37.9695076,-122.0560453
2001 Diamond Blvd.,"Concord, California 94520","2001 Diamond Blvd., Concord, California 94520",37.9725183,-122.0577351
100 Town Square Road,"Copperopolis, California 95228","100 Town Square Road, Copperopolis, California 95228",37.9728193,-120.6527499
950 Hwy 99 W,"Corning, California 96021-2706","950 Hwy 99 W, Corning, California 96021-2706",39.9262192,-122.1979732
2615 Tuscany Street,"Corona, California 92881-4631","2615 Tuscany Street, Corona, California 92881-4631",33.826779,-117.5163785
1618 Redwood Highway,"Corte Madera, California 94925","1618 Redwood Highway, Corte Madera, California 94925",37.9299257,-122.5148583
3303 Hyland Ave,"Costa Mesa, California 92626","3303 Hyland Ave, Costa Mesa, California 92626",33.6928318,-117.926132
20635  Gas Point Road,"Cottonwood, California 96022","20635  Gas Point Road, Cottonwood, California 96022",40.3880803,-122.2881053
1000 Front Street,"Crescent City, California 95531-4307","1000 Front Street, Crescent City, California 95531-4307",41.7520057,-124.1946673
6000 Sepulveda Blvd.,"Culver City, California 90230-6421","6000 Sepulveda Blvd., Culver City, California 90230-6421",33.9849906,-118.3950632
11924 Washington Boulevard,"Culver City, California 90066","11924 Washington Boulevard, Culver City, California 90066",33.9974919,-118.4207828
20745 Stevens Creek Boulevard,"Cupertino, California 95014","20745 Stevens Creek Boulevard, Cupertino, California 95014",37.3239281,-122.0360516
19500 Vallco Parkway,"Cupertino, California 95014-0000","19500 Vallco Parkway, Cupertino, California 95014-0000",37.3240402,-122.0089759
4959 Katella Ave,"Cypress, California 90720","4959 Katella Ave, Cypress, California 90720",33.8035406,-118.044076
6917 Mission Street,"Daly City, California 94014","6917 Mission Street, Daly City, California 94014",37.6968967,-122.4631423
3 Serramonte Center,"Daly City, California 94015","3 Serramonte Center, Daly City, California 94015",37.6716778,-122.4707839
2107-2151 Cowell Blvd,"Davis, California 95618","2107-2151 Cowell Blvd, Davis, California 95618",38.5414155,-121.7248895
2785 South Diamond Bar Boulevard,"Diamond Bar, California 91765","2785 South Diamond Bar Boulevard, Diamond Bar, California 91765",33.9747361,-117.838103
9500 Lakewood Boulevard,"Downey, California 90240-3307","9500 Lakewood Boulevard, Downey, California 90240-3307",33.9539011,-118.1134599
251 Stonewood Street,"Downey, California 90241","251 Stonewood Street, Downey, California 90241",33.9350858,-118.1192171
6701 Amador Plaza Road,"Dublin, California 94568-2933","6701 Amador Plaza Road, Dublin, California 94568-2933",37.7027565,-121.9249635
4288 4288 Dublin Boulevard,"Dublin, California 94568","4288 4288 Dublin Boulevard, Dublin, California 94568",37.7047258,-121.8759861
7841  Amador Valley Boulevard,"Dublin , California 94568","7841  Amador Valley Boulevard, Dublin , California 94568",37.706416,-121.9351241
2800 2800 Dublin Boulevard,"Dublin, California 94568","2800 2800 Dublin Boulevard, Dublin, California 94568",37.7027799,-121.8535924
30044 County Road 8,"Dunnigan, California 95937","30044 County Road 8, Dunnigan, California 95937",38.8620769,-122.038129
1700  East Bayshore Road,"East Palo Alto, California 94303","1700  East Bayshore Road, East Palo Alto, California 94303",37.4610817,-122.1392088
1771 East Bayshore Road,"East Palo Alto, California 94303","1771 East Bayshore Road, East Palo Alto, California 94303",37.4603649,-122.135484
12471 Limonite Avenue,"Eastvale, California 91752","12471 Limonite Avenue, Eastvale, California 91752",33.9783777,-117.5541707
3551 S Dogwood Rd,"El Centro, California 92243-9679","3551 S Dogwood Rd, El Centro, California 92243-9679",32.7619448,-115.5312843
330 Wake Avenue,"El Centro, California 92243","330 Wake Avenue, El Centro, California 92243",32.7731137,-115.5500231
280 El Cerrito Plaza,"El Cerrito, California 94530","280 El Cerrito Plaza, El Cerrito, California 94530",37.8992575,-122.2983939
11136 CA-140,"El Portal, California 95318","11136 CA-140, El Portal, California 95318",37.6785869,-119.7647031
7119  Elk Grove Boulevard,"Elk Grove, California 95758","7119  Elk Grove Boulevard, Elk Grove, California 95758",38.4097904,-121.4195463
8451 Elk Grove Boulevard,"Elk Grove, California 95758","8451 Elk Grove Boulevard, Elk Grove, California 95758",38.4097787,-121.3921515
5795 Christie Avenue,"Emeryville, California 94608","5795 Christie Avenue, Emeryville, California 94608",37.8378637,-122.2956033
3300 Broadway St.,"Eureka, California 95501-3809","3300 Broadway St., Eureka, California 95501-3809",40.7792963,-124.1905928
1350 Holiday Lane,"Fairfield, California 94534","1350 Holiday Lane, Fairfield, California 94534",38.2562649,-122.0653232
1350 Travis Blvd.,"Fairfield, California 94533-3432","1350 Travis Blvd., Fairfield, California 94533-3432",38.26075,-122.0539143
46272 West Panoche Road,"Firebaugh, California 93622","46272 West Panoche Road, Firebaugh, California 93622",36.639791,-120.6255202
1122 Highway 41,"Fish Camp, California 93623","1122 Highway 41, Fish Camp, California 93623",37.4728092,-119.635066
220 Iron Point Rd.,"Folsom, California 95630-9000","220 Iron Point Rd., Folsom, California 95630-9000",38.6423204,-121.1881658
220 Palladio Parkway,"Folsom, California 95630-8784","220 Palladio Parkway, Folsom, California 95630-8784",38.6476658,-121.1189469
152234 Summit Avenue,"Fontana, California 92336","152234 Summit Avenue, Fontana, California 92336",34.151064,-117.4713071
171 Boatyard Drive,"Fort Bragg, California 95437","171 Boatyard Drive, Fort Bragg, California 95437",39.4215495,-123.8064174
17940 Newhope Street,"Fountain Valley, California 92708-5422","17940 Newhope Street, Fountain Valley, California 92708-5422",33.703083,-117.9341125
9430  Warner Avenue,"Fountain Valley, California 92708","9430  Warner Avenue, Fountain Valley, California 92708",33.7149752,-117.9643165
45500 Fremont Blvd,"Fremont, California 94538-6326","45500 Fremont Blvd, Fremont, California 94538-6326",37.4935714,-121.9432536
39410 Civic Center Dr,"Fremont, California 94538","39410 Civic Center Dr, Fremont, California 94538",37.5537526,-121.9733617
39201 Fremont Blvd.,"Fremont, California 94538-1301","39201 Fremont Blvd., Fremont, California 94538-1301",37.544993,-121.9851544
43950 Pacific Commons Boulevard,"Fremont, California 94538","43950 Pacific Commons Boulevard, Fremont, California 94538",37.501549,-121.9682845
6623 N Riverside Dr,"Fresno, California 93722-9322","6623 N Riverside Dr, Fresno, California 93722-9322",36.8345544,-119.9104703
1144  East Champlain Drive,"Fresno , California 93720","1144  East Champlain Drive, Fresno , California 93720",36.8721313,-119.7621427
7965 North Blackstone Avenue,"Fresno, California 93720","7965 North Blackstone Avenue, Fresno, California 93720",36.8511407,-119.7915028
5001 North Riverside Drive,"Fresno, California 93722","5001 North Riverside Drive, Fresno, California 93722",36.8297068,-119.9041828
220  East Orangethorpe Avenue,"Fullerton, California 92832","220  East Orangethorpe Avenue, Fullerton, California 92832",33.8599223,-117.9217282
Leavesley Rd,"Gilroy, California 95020-3647","Leavesley Rd, Gilroy, California 95020-3647",37.0233294,-121.5643997
6705 Camino Arroyo,"Gilroy, California 95020","6705 Camino Arroyo, Gilroy, California 95020",36.9999009,-121.5546616
300 Harvey Drive,"Glendale, California 91206","300 Harvey Drive, Glendale, California 91206",34.1482298,-118.2280304
899 Americana Way,"Glendale, California 91210","899 Americana Way, Glendale, California 91210",34.1453863,-118.2576255
7004 Marketplace Drive,"Goleta, California 93117","7004 Marketplace Drive, Goleta, California 93117",34.4286602,-119.8726056
10823 Zelzah Avenue,"Granada Hills, California 91344","10823 Zelzah Avenue, Granada Hills, California 91344",34.2663545,-118.5250769
50 Bon Air Center,"Greenbrae, California 94904","50 Bon Air Center, Greenbrae, California 94904",37.947015,-122.5261976
560 Walnut Avenue,"Greenfield, California 93927","560 Walnut Avenue, Greenfield, California 93927",36.3292478,-121.2465406
11875 Ponderosa Lane,"Groveland, California 95321","11875 Ponderosa Lane, Groveland, California 95321",37.8385733,-120.2313868
12411 CA-33,"Gustine, California 95322","12411 CA-33, Gustine, California 95322",37.109356,-121.017599
24505 W Dorris Ave,"Coalinga, California 93210-9667","24505 W Dorris Ave, Coalinga, California 93210-9667",36.2527684,-120.2385454
4427 West El Segundo Boulevard,"Hawthorne, California 90250","4427 West El Segundo Boulevard, Hawthorne, California 90250",33.9174845,-118.3538198
2700 West 120th Avenue,"Hawthorne, California 90250","2700 West 120th Avenue, Hawthorne, California 90250",33.9219162,-118.3213946
19661 Hesperian Boulevard,"Hayward, California 94541","19661 Hesperian Boulevard, Hayward, California 94541",37.66609,-122.121213
710 16th St.,"Hermosa Beach, California 90254","710 16th St., Hermosa Beach, California 90254",33.8663811,-118.3937389
14135  14135 Main Street,"Hesperia  , California 92345","14135  14135 Main Street, Hesperia  , California 92345",34.4261839,-117.3539354
12795 12795 Main Street,"Hesperia, California 92345","12795 12795 Main Street, Hesperia, California 92345",34.4243923,-117.3838757
27961 Highland Avenue,"Highland, California 92346","27961 Highland Avenue, Highland, California 92346",34.1346445,-117.1945131
1900 Hilltop Dr,"Redding, California 96002","1900 Hilltop Dr, Redding, California 96002",40.5794823,-122.3587535
1700 Airline Hwy,"Hollister, California 95023","1700 Airline Hwy, Hollister, California 95023",36.8371371,-121.3915311
10021 Pacheco Pass Hwy,"Hollister, California 95023-9541","10021 Pacheco Pass Hwy, Hollister, California 95023-9541",36.9881955,-121.3824378
5000  Kahala Avenue,"Honolulu, Hawaii 96816","5000  Kahala Avenue, Honolulu, Hawaii 96816",21.2718198,-157.7737069
42100 Jackson Street,"Indio, California 92203-9736","42100 Jackson Street, Indio, California 92203-9736",33.7425858,-116.2130256
1353 Brown Road,"Inyokern, California 93527","1353 Brown Road, Inyokern, California 93527",35.6467355,-117.8127336
6525 West Inyokern Road,"Inyokern, California 93527","6525 West Inyokern Road, Inyokern, California 93527",35.6466817,-117.8133752
14346 Culver Drive,"Irvine, California 92604","14346 Culver Drive, Irvine, California 92604",33.7061983,-117.7856325
1920 Main Street,"Irvine, California 92614","1920 Main Street, Irvine, California 92614",33.7228444,-117.8681207
3021 Michelson Drive,"Irvine, California 92612-0626","3021 Michelson Drive, Irvine, California 92612-0626",33.6729554,-117.8450807
5406 Walnut Avenue,"Irvine, California 92604","5406 Walnut Avenue, Irvine, California 92604",33.68995,-117.7692025
31 CA-88,"Jackson, California 95642","31 CA-88, Jackson, California 95642",38.34822,-120.7753696
33341 33341 Bernard Drive,"Kettleman City, California 93239","33341 33341 Bernard Drive, Kettleman City, California 93239",35.9882158,-119.9581989
600 Canal St,"King City, California 93930","600 Canal St, King City, California 93930",36.2025709,-121.1297464
8555 Fletcher Parkway,"La Mesa, California 91942","8555 Fletcher Parkway, La Mesa, California 91942",32.7802521,-117.0141678
25248 Cabot Rd,"Laguna Hills, California 92653","25248 Cabot Rd, Laguna Hills, California 92653",33.5957319,-117.6752707
28200 CA-189,"Lake Arrowhead, California 92352","28200 CA-189, Lake Arrowhead, California 92352",34.2513589,-117.1895842
31500 Grape Street,"Lake Elsinore, California 92532","31500 Grape Street, Lake Elsinore, California 92532",33.6597541,-117.2939106
17600 Collier Avenue,"Lake Elsinore, California 92530","17600 Collier Avenue, Lake Elsinore, California 92530",33.7010474,-117.3526155
24301 Muirlands Boulevard,"Lake Forest, California 92630","24301 Muirlands Boulevard, Lake Forest, California 92630",33.6296911,-117.7054473
5929 South Street,"Lakewood, California 90713","5929 South Street, Lakewood, California 90713",33.8584204,-118.1162584
192 Lathrop Road,"Lathrop, California 95330","192 Lathrop Road, Lathrop, California 95330",37.8257802,-121.2860613
15207 Hawthorne Blvd,"Lawndale, California 90260","15207 Hawthorne Blvd, Lawndale, California 90260",33.8930309,-118.3529977
45020 N US Highway 101,"Laytonville, California 95454-9049","45020 N US Highway 101, Laytonville, California 95454-9049",39.6887375,-123.4834847
950 Groveland Lane,"Lincoln, California 95648","950 Groveland Lane, Lincoln, California 95648",38.8699549,-121.3042972
3020 West Jack London Boulevard,"Livermore, California 94551","3020 West Jack London Boulevard, Livermore, California 94551",37.6968746,-121.8454558
2774 Livermore Outlets Drive,"Livermore, California 94551","2774 Livermore Outlets Drive, Livermore, California 94551",37.6990221,-121.844067
701 S Main St,"Lone Pine, California 93545","701 S Main St, Lone Pine, California 93545",36.6008921,-118.0616868
6521  Pacific Coast Hwy,"Long Beach, California 90803","6521  Pacific Coast Hwy, Long Beach, California 90803",33.7571069,-118.1079244
6119 Horseshoe Bar Road,"Loomis, California 95650","6119 Horseshoe Bar Road, Loomis, California 95650",38.818281,-121.1883978
32 Loucks Ave,"Los Altos, California 94022","32 Loucks Ave, Los Altos, California 94022",37.399863,-122.11496
4800 El Camino Real,"Los Altos, California 94022","4800 El Camino Real, Los Altos, California 94022",37.3989347,-122.1106379
8985 Venice Blvd,"Los Angeles, California 90034","8985 Venice Blvd, Los Angeles, California 90034",34.0276642,-118.3933069
11355 West Olympic Boulevard,"Los Angeles, California 90064","11355 West Olympic Boulevard, Los Angeles, California 90064",34.0383632,-118.4434174
899 South Francisco Street,"Los Angeles, California 90015","899 South Francisco Street, Los Angeles, California 90015",34.047421,-118.2641652
668 South Alameda Street,"Los Angeles, California 90021","668 South Alameda Street, Los Angeles, California 90021",34.0357445,-118.2385826
16000  Los Gatos Blvd,"Los Gatos , California 95032","16000  Los Gatos Blvd, Los Gatos , California 95032",37.2361214,-121.9618863
142 Los Gatos-Saratoga Road,"Los Gatos, California 95032","142 Los Gatos-Saratoga Road, Los Gatos, California 95032",37.2286908,-121.9800097
I-5 CA-46,"Lost Hills, California 93249","I-5 CA-46, Lost Hills, California 93249",35.6130433,-119.6511275
32603  Avenue 7,"Madera, California 93637","32603  Avenue 7, Madera, California 93637",36.8523539,-119.951866
23465 Civic Center Way,"Malibu, California 90265","23465 Civic Center Way, Malibu, California 90265",34.0371957,-118.6873941
23475 Civic Center Way,"Malibu, California 90265","23475 Civic Center Way, Malibu, California 90265",34.0368214,-118.6874524
3862 Cross Creek Road,"Malibu, California 90265","3862 Cross Creek Road, Malibu, California 90265",34.0357267,-118.6842666
1475 Tavern Road,"Mammoth Lakes, California 93546","1475 Tavern Road, Mammoth Lakes, California 93546",37.644522,-118.965505
686 Old Mammoth Road,"Mammoth Lakes, California 93546","686 Old Mammoth Road, Mammoth Lakes, California 93546",37.6360627,-118.9673151
3200 North Sepulveda Boulevard,"Manhattan Beach, California 90266","3200 North Sepulveda Boulevard, Manhattan Beach, California 90266",33.8988005,-118.3951326
960 Perimeter Dr,"Manteca, California 95337-9507","960 Perimeter Dr, Manteca, California 95337-9507",37.7824044,-121.227938
280 Spreckels Avenue,"Manteca, California 95336","280 Spreckels Avenue, Manteca, California 95336",37.7944428,-121.196629
190 Donahue Street,"Marin City, California 94965","190 Donahue Street, Marin City, California 94965",37.8730034,-122.5101649
13534 Bali Way,"Marina Del Rey, California 90292","13534 Bali Way, Marina Del Rey, California 90292",33.9800209,-118.4456231
145 General Stilwell Drive,"Marina, California 93933","145 General Stilwell Drive, Marina, California 93933",36.6672997,-121.8095511
5034  Coakley Circle,"Mariposa, California 95338","5034  Coakley Circle, Mariposa, California 95338",37.4884389,-119.9719024
520 Center Avenue,"Martinez, California 94553","520 Center Avenue, Martinez, California 94553",37.9924075,-122.120932
5416 Lindhurst Ave,"Marysville, California 95901","5416 Lindhurst Ave, Marysville, California 95901",39.1106661,-121.5562224
30340 Haun Road,"Menifee, California 92584","30340 Haun Road, Menifee, California 92584",33.6806886,-117.1724453
325 Sharon Park Drive,"Menlo Park, California 94025","325 Sharon Park Drive, Menlo Park, California 94025",37.4233487,-122.1969534
1425 Martin Luther King Junior Way,"Merced, California 95340","1425 Martin Luther King Junior Way, Merced, California 95340",37.2981784,-120.4842616
20  South Abbott Avenue,"Milpitas, California 95035","20  South Abbott Avenue, Milpitas, California 95035",37.42763,-121.9125537
447 Great Mall Drive,"Milpitas, California 95035","447 Great Mall Drive, Milpitas, California 95035",37.4159165,-121.896816
901 East Calaveras Boulevard,"Milpitas, California 95035","901 East Calaveras Boulevard, Milpitas, California 95035",37.4346922,-121.891889
27741 Crown Valley Parkway,"Mission Viejo, California 92691","27741 Crown Valley Parkway, Mission Viejo, California 92691",33.5612541,-117.6715352
555 The Shops at Mission Viejo,"Mission Viejo, California 92691","555 The Shops at Mission Viejo, Mission Viejo, California 92691",33.5576683,-117.6695391
1212 Joyce Ave,"Modesto, California 95351","1212 Joyce Ave, Modesto, California 95351",37.6103798,-120.9765396
3900 Sisk Road,"Modesto, California 95356","3900 Sisk Road, Modesto, California 95356",37.6939269,-121.0628914
16246 Sierra Highway,"Mojave, California 93501","16246 Sierra Highway, Mojave, California 93501",35.0569911,-118.1748242
16940 16940 CA-14,"Mojave, California 93501","16940 16940 CA-14, Mojave, California 93501",35.0687343,-118.1741701
1759 South Jameson Lane,"Montecito, California 93108","1759 South Jameson Lane, Montecito, California 93108",34.4206339,-119.6285323
1901 Del Monte Boulevard,"Seaside, California 93955-3123","1901 Del Monte Boulevard, Seaside, California 93955-3123",36.6171404,-121.8438435
1410 Del Monte Center,"Monterey, California 93940-6168","1410 Del Monte Center, Monterey, California 93940-6168",36.5832303,-121.8977704
22330 Cactus Ave,"Moreno Valley, California 92553","22330 Cactus Ave, Moreno Valley, California 92553",33.9105707,-117.2737697
1061 Cochrane Road,"Morgan Hill, California 95037","1061 Cochrane Road, Morgan Hill, California 95037",37.1576128,-121.6537658
1401 N. Shoreline Blvd.,"Mountain View, California 94043-1311","1401 N. Shoreline Blvd., Mountain View, California 94043-1311",37.4144368,-122.0776886
1350 Grant Rd,"Mountain View, California 94040","1350 Grant Rd, Mountain View, California 94040",37.3768945,-122.076516
111 Morgan Way,"Mt. Shasta, California 96067-2557","111 Morgan Way, Mt. Shasta, California 96067-2557",41.3095047,-122.3176155
134 Morgan Way,"Mount Shasta, California 96067-2501","134 Morgan Way, Mount Shasta, California 96067-2501",41.3092152,-122.3154222
629 Factory Stores Drive,"Napa, California 94558","629 Factory Stores Drive, Napa, California 94558",38.295976,-122.3025133
4000 Bel Aire Plaza,"Napa, California 94558","4000 Bel Aire Plaza, Napa, California 94558",38.322582,-122.3080942
221 Devlin Rd,"Napa, California 94558-6280","221 Devlin Rd, Napa, California 94558-6280",38.2357586,-122.2645961
2451 Needles HWY,"Needles, California 92363-2108","2451 Needles HWY, Needles, California 92363-2108",34.8507813,-114.6241246
2410 West Broadway Street,"Needles, California 92363","2410 West Broadway Street, Needles, California 92363",34.8507488,-114.6228065
8200 Gateway Blvd,"Newark, California 94560","8200 Gateway Blvd, Newark, California 94560",37.5362685,-122.0627909
3100 Newpark Mall,"Newark, California 94560","3100 Newpark Mall, Newark, California 94560",37.5256769,-122.0062206
23502 Newhall Avenue,"Santa Clarita, California 91321","23502 Newhall Avenue, Santa Clarita, California 91321",34.3679841,-118.5095693
9000 Tampa Ave,"Northridge, California 91324","9000 Tampa Ave, Northridge, California 91324",34.2336712,-118.5530999
208 Vintage Way,"Novato, California 94945","208 Vintage Way, Novato, California 94945",38.0887587,-122.5517522
40489  CA-41,"Oakhurst, California 93644","40489  CA-41, Oakhurst, California 93644",37.3344927,-119.6456152
255 2nd Street,"Oakland, California 94607","255 2nd Street, Oakland, California 94607",37.7940963,-122.2725223
640 Hegenberger Road,"Oakland, California 94621","640 Hegenberger Road, Oakland, California 94621",37.7471012,-122.1950247
987 West Ojai Avenue,"Ojai, California 93023","987 West Ojai Avenue, Ojai, California 93023",34.4420894,-119.2585103
10005 Coastal Highway 1,"Olema, California 94950","10005 Coastal Highway 1, Olema, California 94950",38.040505,-122.7883259
4410 Ontario Mills Pkwy,"Ontario, California 91764","4410 Ontario Mills Pkwy, Ontario, California 91764",34.0684109,-117.5557757
2440 S Vineyard Ave,"Ontario, California 91761","2440 S Vineyard Ave, Ontario, California 91761",34.029647,-117.612327
155 E C Street,"Ontario, California 91764","155 E C Street, Ontario, California 91764",34.0662486,-117.6500551
2751 Park View Ct,"Oxnard, California 93036-5452","2751 Park View Ct, Oxnard, California 93036-5452",34.241399,-119.1774486
1038 N Swarthmore Avenue,"Pacific Palisades, California 90272","1038 N Swarthmore Avenue, Pacific Palisades, California 90272",34.0481004,-118.524665
101 North Museum Drive,"Palm Springs, California 92262","101 North Museum Drive, Palm Springs, California 92262",33.8242352,-116.5499964
39626 10th St W,"Palmdale, California 93551","39626 10th St W, Palmdale, California 93551",34.6030967,-118.1461149
1233 Rancho Vista Boulevard,"Palmdale, California 93551","1233 Rancho Vista Boulevard, Palmdale, California 93551",34.6053141,-118.1531753
445 Bryant Street,"Palo Alto, California 94301","445 Bryant Street, Palo Alto, California 94301",37.4466572,-122.1619412
660 Stanford Shopping Center,"Palo Alto, California 94304","660 Stanford Shopping Center, Palo Alto, California 94304",37.4438559,-122.1719885
3363  Electronic Drive,"Pasadena, California 91107","3363  Electronic Drive, Pasadena, California 91107",34.1544356,-118.0804184
85  East State Street,"Pasadena, California 91105","85  East State Street, Pasadena, California 91105",34.1258752,-118.1479234
410 Shoppers Ln,"Pasadena, California 91106","410 Shoppers Ln, Pasadena, California 91106",34.1386594,-118.131121
155 East Green Street,"Pasadena, California 91105","155 East Green Street, Pasadena, California 91105",34.1450356,-118.1468286
1111  Riverside Avenue,"Paso Robles , California 93446","1111  Riverside Avenue, Paso Robles , California 93446",35.6263094,-120.6873413
2421-2445 Golden Hill Road,"Paso Robles, California 93446","2421-2445 Golden Hill Road, Paso Robles, California 93446",35.645592,-120.6609723
2959 Speno Drive,"Patterson, California 95363","2959 Speno Drive, Patterson, California 95363",37.4667684,-121.1747607
401 Kennilworth Drive,"Petaluma, California 94952-3400","401 Kennilworth Drive, Petaluma, California 94952-3400",38.243985,-122.625626
333 5 Cities Drive,"Pismo Beach, California 93449","333 5 Cities Drive, Pismo Beach, California 93449",35.1357443,-120.62754
1216-1252 Broadway,"Placerville, California 95667","1216-1252 Broadway, Placerville, California 95667",38.7303505,-120.7875657
3966 Missouri Flat Road,"Placerville, California 95667","3966 Missouri Flat Road, Placerville, California 95667",38.7111015,-120.8436136
12746 W Jefferson Blvd,"Playa Vista, California 90094","12746 W Jefferson Blvd, Playa Vista, California 90094",33.9769547,-118.417595
6770 Santa Rita Rd,"Pleasanton, California 94588","6770 Santa Rita Rd, Pleasanton, California 94588",37.6997342,-121.8710509
6000 Johnson Drive,"Pleasanton, California 94588","6000 Johnson Drive, Pleasanton, California 94588",37.70013,-121.9106317
7720  US-50,"Pollock Pines, California 95726","7720  US-50, Pollock Pines, California 95726",38.7600587,-120.5303227
40820 Winchester Rd.,"Temecula, California 92591-5525","40820 Winchester Rd., Temecula, California 92591-5525",33.5259384,-117.153689
12642 Cultural Center Dr.,"Rancho Cucamonga, California 91739-7511","12642 Cultural Center Dr., Rancho Cucamonga, California 91739-7511",34.1134187,-117.5294856
12750 Foothill Boulevard,"Rancho Cucamonga, California 91739","12750 Foothill Boulevard, Rancho Cucamonga, California 91739",34.106646,-117.5266096
71800 CA-111,"Rancho Mirage, California 92270","71800 CA-111, Rancho Mirage, California 92270",33.7390891,-116.4093446
725  South Main Street,"Red Bluff , California 96080","725  South Main Street, Red Bluff , California 96080",40.16312,-122.2294036
82 Belle Mill Road,"Red Bluff, California 96080","82 Belle Mill Road, Red Bluff, California 96080",40.1814839,-122.2281625
704 Auditorium Dr,"Redding, California 96001","704 Auditorium Dr, Redding, California 96001",40.5875771,-122.3803761
205 West Stuart Avenue,"Redlands, California 92374","205 West Stuart Avenue, Redlands, California 92374",34.0594535,-117.1853883
2410 Marine Avenue,"Redondo Beach, California 90278-1103","2410 Marine Avenue, Redondo Beach, California 90278-1103",33.8938695,-118.3665988
3288 Pierce St,"Richmond, California 94804","3288 Pierce St, Richmond, California 94804",37.8990138,-122.3075627
2157 Meeker Avenue,"Richmond, California 94804","2157 Meeker Avenue, Richmond, California 94804",37.9205128,-122.3483565
710 Jack Tone Road,"Ripon, California 95366","710 Jack Tone Road, Ripon, California 95366",37.7475397,-121.1418597
2755 Canyon Springs Parkway,"Riverside, California 92507","2755 Canyon Springs Parkway, Riverside, California 92507",33.9386198,-117.2824587
3370 9th St,"Riverside, California 92501-3366","3370 9th St, Riverside, California 92501-3366",33.9814013,-117.3759039
4361 Granite Drive,"Rocklin, California 95677-2131","4361 Granite Drive, Rocklin, California 95677-2131",38.8003431,-121.2107219
475 Rohnert Park Expressway,"Rohnert Park, California 94928","475 Rohnert Park Expressway, Rohnert Park, California 94928",38.3461728,-122.7204316
1851 Freedom Wy,"Roseville, California 95678","1851 Freedom Wy, Roseville, California 95678",38.7916756,-121.2975413
1925 Douglas Blvd,"Roseville, California 95661","1925 Douglas Blvd, Roseville, California 95661",38.7461252,-121.2542203
1120 Galleria Boulevard,"Roseville, California 95678","1120 Galleria Boulevard, Roseville, California 95678",38.768924,-121.2631731
1600 So Azusa Avenue,"Rowland Heights, California 91748","1600 So Azusa Avenue, Rowland Heights, California 91748",33.9938119,-117.9285824
2001  Point West Way,"Sacramento, California 95815","2001  Point West Way, Sacramento, California 95815",38.6010049,-121.4331186
1689 Arden Way,"Sacramento, California 95815","1689 Arden Way, Sacramento, California 95815",38.6025297,-121.4277413
4700 Freeport Blvd,"Sacramento, California 95822","4700 Freeport Blvd, Sacramento, California 95822",38.5330582,-121.4959586
450 J Street,"Sacramento, California 95814","450 J Street, Sacramento, California 95814",38.5819096,-121.5004097
3668 N. Freeway Blvd.,"Sacramento, California 95834-0000","3668 N. Freeway Blvd., Sacramento, California 95834-0000",38.6378448,-121.4962149
1606 North Main Street,"Salinas, California 93906-5102","1606 North Main Street, Salinas, California 93906-5102",36.713732,-121.654197
500 Inland Center Drive,"San Bernardino, California 92408","500 Inland Center Drive, San Bernardino, California 92408",34.0850828,-117.29737
1150 El Camino Real,"San Bruno, California 94066","1150 El Camino Real, San Bruno, California 94066",37.6361874,-122.4178577
2801 San Bruno Avenue,"San Bruno, California 94066","2801 San Bruno Avenue, San Bruno, California 94066",37.6188785,-122.4395796
1127 Industrial Road,"San Carlos, California 94070","1127 Industrial Road, San Carlos, California 94070",37.5021129,-122.2451818
990 990 Avenida Vista Hermosa,"San Clemente, California 92673","990 990 Avenida Vista Hermosa, San Clemente, California 92673",33.4638539,-117.6062601
101 West Avenida Vista Hermosa,"San Clemente, California 92672-7706","101 West Avenida Vista Hermosa, San Clemente, California 92672-7706",33.4390144,-117.6273913
7373  7373 Clairemont Mesa Boulevard,"San Diego, California 92111","7373  7373 Clairemont Mesa Boulevard, San Diego, California 92111",32.8323032,-117.15959
6030  Village Way,"San Diego , California 92130","6030  Village Way, San Diego , California 92130",32.962573,-117.189475
1350 6th Avenue,"San Diego, California 92101","1350 6th Avenue, San Diego, California 92101",32.7194838,-117.1595169
5617 Balboa Avenue,"San Diego, California 92111","5617 Balboa Avenue, San Diego, California 92111",32.8183961,-117.178425
4211 Camino De La Plaza,"San Diego, California 92173","4211 Camino De La Plaza, San Diego, California 92173",32.5443104,-117.041894
17170 Camino Del Sur,"San Diego, California 92127","17170 Camino Del Sur, San Diego, California 92127",33.0195331,-117.125387
4639 Carmel Mountain Road,"San Diego, California 92130","4639 Carmel Mountain Road, San Diego, California 92130",32.9203745,-117.2144152
7007 Friars Road,"San Diego, California 92108","7007 Friars Road, San Diego, California 92108",32.7687872,-117.1654098
8251 Mira Mesa Boulevard,"San Diego, California 92126","8251 Mira Mesa Boulevard, San Diego, California 92126",32.9102706,-117.1461447
5680 Mission Center Road,"San Diego, California 92108","5680 Mission Center Road, San Diego, California 92108",32.7758477,-117.1553741
2495 Truxtun Road,"San Diego, California 92106","2495 Truxtun Road, San Diego, California 92106",32.7369895,-117.2162259
1010 Celis Street,"San Fernando, California 91340","1010 Celis Street, San Fernando, California 91340",34.2814838,-118.4416605
2300 16th Street,"San Francisco, California 94103","2300 16th Street, San Francisco, California 94103",37.766469,-122.4095835
2675 Geary Blvd,"San Francisco, California 94118","2675 Geary Blvd, San Francisco, California 94118",37.7819871,-122.4455049
1 Letterman Drive,"San Francisco, California 94129","1 Letterman Drive, San Francisco, California 94129",37.7988828,-122.4493335
601 Van Ness Avenue,"San Francisco, California 94102","601 Van Ness Avenue, San Francisco, California 94102",37.7814909,-122.4208963
140 W Valley Blvd,"San Gabriel, California 91776","140 W Valley Blvd, San Gabriel, California 91776",34.0780505,-118.1016377
1320 Saratoga Avenue,"San Jose, California 95129","1320 Saratoga Avenue, San Jose, California 95129",37.3001316,-121.98108
3085  Meridian Avenue,"San Jose , California 95124","3085  Meridian Avenue, San Jose , California 95124",37.2691164,-121.9068115
117  Bernal Road,"San Jose , California 95119","117  Bernal Road, San Jose , California 95119",37.230661,-121.7753704
2105 North 1st Street,"San Jose, California 95112","2105 North 1st Street, San Jose, California 95112",37.3739554,-121.9195674
2306 Almaden Rd,"San Jose, California 95125","2306 Almaden Rd, San Jose, California 95125",37.2905217,-121.8798384
430  West Capitol Expressway,"San Jose , California 95136","430  West Capitol Expressway, San Jose , California 95136",37.2742323,-121.8505788
55 Race St,"San Jose, California 95126","55 Race St, San Jose, California 95126",37.3302863,-121.9121537
2926 Aborn Sq,"San Jose, California 95121","2926 Aborn Sq, San Jose, California 95121",37.3128583,-121.8099515
925 925 Blossom Hill Road,"San Jose, California 95123","925 925 Blossom Hill Road, San Jose, California 95123",37.2521101,-121.863377
1375 1375 Blossom Hill Road,"San Jose, California 95118","1375 1375 Blossom Hill Road, San Jose, California 95118",37.2449438,-121.88988
5160 Cherry Avenue,"San Jose, California 95118","5160 Cherry Avenue, San Jose, California 95118",37.2572248,-121.872786
533 Coleman Avenue,"San Jose, California 95110","533 Coleman Avenue, San Jose, California 95110",37.3386461,-121.9044629
1029 East Capitol Expressway,"San Jose, California 95121","1029 East Capitol Expressway, San Jose, California 95121",37.2996405,-121.8230767
95 Holger Way,"San Jose, California 95134","95 Holger Way, San Jose, California 95134",37.4181996,-121.955384
1070 S White Rd,"San Jose, California 95127","1070 S White Rd, San Jose, California 95127",37.3579406,-121.8182718
330 South Winchester,"San Jose, California 95128","330 South Winchester, San Jose, California 95128",37.3221786,-121.9492664
26701 Verdugo St,"San Juan Capistrano , California 92675","26701 Verdugo St, San Juan Capistrano , California 92675",33.5007373,-117.6638354
31971 Camino Capistrano,"San Juan Capistrano, California 92675-3217","31971 Camino Capistrano, San Juan Capistrano, California 92675-3217",33.4983659,-117.6627812
1201 Marina Blvd,"San Leandro, California 94577","1201 Marina Blvd, San Leandro, California 94577",37.7104974,-122.1636064
3897 South Higuera St,"San Luis Obispo, California 93401","3897 South Higuera St, San Luis Obispo, California 93401",35.2471635,-120.6728512
11970 Los Osos Valley Road,"San Luis Obispo, California 93405","11970 Los Osos Valley Road, San Luis Obispo, California 93405",35.253455,-120.6848607
100 Madonna Road,"San Luis Obispo, California 93405","100 Madonna Road, San Luis Obispo, California 93405",35.2667786,-120.6757085
563 Grand Avenue,"San Marcos, California 92069","563 Grand Avenue, San Marcos, California 92069",33.1355418,-117.1752776
1200 Park Place,"San Mateo, California 94403-1592","1200 Park Place, San Mateo, California 94403-1592",37.5461698,-122.2902892
2817  South El Camino Real,"San Mateo , California 94403-2728","2817  South El Camino Real, San Mateo , California 94403-2728",37.5418782,-122.3020076
2940 S Norfolk St,"San Mateo, California 94403","2940 S Norfolk St, San Mateo, California 94403",37.54403,-122.285769
1878  South Norfolk Street,"San Mateo, California 94403","1878  South Norfolk Street, San Mateo, California 94403",37.5543437,-122.2927719
230 De Anza Blvd,"San Mateo, California 94402","230 De Anza Blvd, San Mateo, California 94402",37.5217919,-122.3376324
2220 Bridgepointe Pkwy,"San Mateo, California 94404-1569","2220 Bridgepointe Pkwy, San Mateo, California 94404-1569",37.5589721,-122.2834029
1206 West Hillsdale Boulevard,"San Mateo, California 94403","1206 West Hillsdale Boulevard, San Mateo, California 94403",37.533487,-122.326454
340 3rd Street,"San Rafael, California 94901","340 3rd Street, San Rafael, California 94901",37.9713513,-122.5168423
2415-2505 2415 San Ramon Valley Boulevard,"San Ramon, California 94583","2415-2505 2415 San Ramon Valley Boulevard, San Ramon, California 94583",37.7747116,-121.9792141
21001  21001 San Ramon Valley Boulevard,"San Ramon, California 94583","21001  21001 San Ramon Valley Boulevard, San Ramon, California 94583",37.7238252,-121.9441113
2610 Bishop Drive,"San Ramon, California 94583","2610 Bishop Drive, San Ramon, California 94583",37.7621797,-121.964373
2040 California Avenue,"Sand City, California 93955","2040 California Avenue, Sand City, California 93955",36.6211304,-121.8430953
300 East 5th Street,"Santa Ana, California 92701","300 East 5th Street, Santa Ana, California 92701",33.7486661,-117.865313
621 Anacapa Street,"Santa Barbara, California 90301","621 Anacapa Street, Santa Barbara, California 90301",34.4190138,-119.6958941
3943 State Street,"Santa Barbara, California 93105","3943 State Street, Santa Barbara, California 93105",34.439064,-119.7528284
3945 Rivermark Plaza,"Santa Clara, California 95054","3945 Rivermark Plaza, Santa Clara, California 95054",37.3951073,-121.9451899
24061 Newhall Ranch Road,"Valencia, California 91355","24061 Newhall Ranch Road, Valencia, California 91355",34.4309256,-118.5562983
911 Soquel Avenue,"Santa Cruz, California 95062","911 Soquel Avenue, Santa Cruz, California 95062",36.978945,-122.014572
371 Town Center East,"Santa Maria, California 93454","371 Town Center East, Santa Maria, California 93454",34.9519351,-120.4336169
395 Santa Monica Place,"Santa Monica, California 90401","395 Santa Monica Place, Santa Monica, California 90401",34.013873,-118.4940602
1819  Cloverfield Boulevard,"Santa Monica, California 90404","1819  Cloverfield Boulevard, Santa Monica, California 90404",34.0253106,-118.4696803
13070 CA-33,"Santa Nella, California 95322","13070 CA-33, Santa Nella, California 95322",37.0993805,-121.0125064
733 Coddingtown Center,"Santa Rosa, California 95401","733 Coddingtown Center, Santa Rosa, California 95401",38.45668,-122.7301367
30270 CA-78,"Santa Ysabel, California 92070","30270 CA-78, Santa Ysabel, California 92070",33.1095417,-116.674449
230 Mount Hermon Road,"Scott's Valley, California 95066","230 Mount Hermon Road, Scott's Valley, California 95066",37.0471222,-122.0272339
2851  Highland Ave,"Selma, California 93662","2851  Highland Ave, Selma, California 93662",36.5743876,-119.6299949
15301 Ventura Boulevard,"Sherman Oaks, California 91403","15301 Ventura Boulevard, Sherman Oaks, California 91403",34.1562003,-118.4670526
51 Tierra Rejada Road,"Simi Valley, California 93065","51 Tierra Rejada Road, Simi Valley, California 93065",34.2734901,-118.798316
48400 Seminole Drive,"Cabazon, California 92230-2125","48400 Seminole Drive, Cabazon, California 92230-2125",33.9308138,-116.816669
437 Hwy 101,"Solana Beach, California 92075","437 Hwy 101, Solana Beach, California 92075",32.9856859,-117.2705968
100 Front Street,"Soledad, California 93960","100 Front Street, Soledad, California 93960",36.4297169,-121.3340585
2080 H Dela Rosa St,"Soledad, California 93960","2080 H Dela Rosa St, Soledad, California 93960",36.4181403,-121.32043
276 East Napa Street,"Sonoma, California 95476","276 East Napa Street, Sonoma, California 95476",38.2919155,-122.4525624
5820 Firestone Boulevard,"South Gate, California 90280","5820 Firestone Boulevard, South Gate, California 90280",33.9479532,-118.1641835
2977  US-50,"South Lake Tahoe, California 96150","2977  US-50, South Lake Tahoe, California 96150",38.8558073,-120.0127082
250 Gateway Boulevard,"South San Francisco, California 94080","250 Gateway Boulevard, South San Francisco, California 94080",37.6554383,-122.4008882
4255  East Morada Lane,"Stockton, California 95212","4255  East Morada Lane, Stockton, California 95212",38.0397206,-121.2602845
2323 Grand Canal Boulevard,"Stockton, California 95207","2323 Grand Canal Boulevard, Stockton, California 95207",37.98454,-121.3356818
190 Pittman Rd,"Fairfield, California 94534","190 Pittman Rd, Fairfield, California 94534",38.2214019,-122.1266333
1100 North Mathilda Avenue,"Sunnyvale, California 94089","1100 North Mathilda Avenue, Sunnyvale, California 94089",37.4053113,-122.0240444
639 S Bernardo Ave,"Sunnyvale, California 94087","639 S Bernardo Ave, Sunnyvale, California 94087",37.3729675,-122.0580874
298 W. McKinley Ave.,"Sunnyvale, California 94086-6193","298 W. McKinley Ave., Sunnyvale, California 94086-6193",37.3737368,-122.0324243
900 Skyline Road,"Susanville, California 96130","900 Skyline Road, Susanville, California 96130",40.43061,-120.6576044
140 Lake Boulevard,"Tahoe City, California 96145","140 Lake Boulevard, Tahoe City, California 96145",39.1679101,-120.1443514
5602 Dennis McCarthy Drive,"Lebec, California 93243-9725","5602 Dennis McCarthy Drive, Lebec, California 93243-9725",34.9866542,-118.9461324
5701 Outlets at Tejon Parkway,"Arvin, California 93203","5701 Outlets at Tejon Parkway, Arvin, California 93203",34.9848377,-118.9415835
30515 Temecula Parkway,"Temecula, California 92592","30515 Temecula Parkway, Temecula, California 92592",33.4750364,-117.1296005
4000 East Thousand Oaks Boulevard,"Thousand Oaks, California 91362","4000 East Thousand Oaks Boulevard, Thousand Oaks, California 91362",34.1606353,-118.822407
350 West Hillcrest Drive,"Thousand Oaks, California 91360","350 West Hillcrest Drive, Thousand Oaks, California 91360",34.1849672,-118.8884423
3490  Fashion Way,"Torrance, California 90503","3490  Fashion Way, Torrance, California 90503",33.8351184,-118.3486699
2850  West Grant Line Road,"Tracy, California 95304","2850  West Grant Line Road, Tracy, California 95304",37.7535673,-121.4673186
36005 CA-99,"Traver, California 93673","36005 CA-99, Traver, California 93673",36.448221,-119.4860619
11209 Brockway Road,"Truckee, California 96161-2221","11209 Brockway Road, Truckee, California 96161-2221",39.3228154,-120.165943
11290 Donner Pass Rd,"Truckee, California 96161-4808","11290 Donner Pass Rd, Truckee, California 96161-4808",39.3272974,-120.2064623
Soaring Way,"Truckee, California 96161","Soaring Way, Truckee, California 96161",39.3193197,-120.1523557
1680 Countryside Drive,"Turlock, California 95380","1680 Countryside Drive, Turlock, California 95380",37.5084731,-120.8755185
1705 Flight Way,"Tustin, California 92782","1705 Flight Way, Tustin, California 92782",33.7050609,-117.8386067
14521 Red Hill Avenue,"Tustin, California 92780","14521 Red Hill Avenue, Tustin, California 92780",33.7281011,-117.8221788
15160 Kensington Park Drive,"Tustin, California 92782","15160 Kensington Park Drive, Tustin, California 92782",33.7112433,-117.8168195
73829 Baseline Road,"Twentynine Palms, California 92277-4125","73829 Baseline Road, Twentynine Palms, California 92277-4125",34.1195247,-116.0510842
250 W Clay St.,"Ukiah, California 95482-4830","250 W Clay St., Ukiah, California 95482-4830",39.1481137,-123.2086933
1315  North State Street,"Ukiah, California 95482","1315  North State Street, Ukiah, California 95482",39.1684465,-123.210339
34536  Alvarado-Niles Road,"Union City, California 94587","34536  Alvarado-Niles Road, Union City, California 94587",37.5876003,-122.0196232
333 Universal Hollywood Dr,"Universal City, California 91608","333 Universal Hollywood Dr, Universal City, California 91608",34.1374897,-118.359786
321 Nut Tree Road,"Vacaville, California 95687-3242","321 Nut Tree Road, Vacaville, California 95687-3242",38.3668743,-121.9544212
2098  Harbison Dr,"Vacaville, California 95687","2098  Harbison Dr, Vacaville, California 95687",38.3613449,-121.9610738
27630 The Old Road,"Valencia, California 91355","27630 The Old Road, Valencia, California 91355",34.4230333,-118.5850869
2155  Solano Avenue,"Vallejo, California 94590","2155  Solano Avenue, Vallejo, California 94590",38.1036423,-122.2308041
904 Admiral Callaghan Lane,"Vallejo, California 94591","904 Admiral Callaghan Lane, Vallejo, California 94591",38.1316646,-122.2226661
256 S Ann St,"Ventura, California 93001","256 S Ann St, Ventura, California 93001",34.2775973,-119.2836132
4095 Telegraph Rd,"Ventura, California 93003","4095 Telegraph Rd, Ventura, California 93003",34.2746533,-119.2395509
14598 7th St,"Victorville, California 92395","14598 7th St, Victorville, California 92395",34.5168713,-117.3146493
11604 Amargosa Rd,"Victorville, California 92392","11604 Amargosa Rd, Victorville, California 92392",34.4627081,-117.3531569
6603  Betty Drive,"Visalia, California 93291","6603  Betty Drive, Visalia, California 93291",36.350668,-119.4239875
1861 University Dr,"Vista, California 92081","1861 University Dr, Vista, California 92081",33.1701646,-117.2183745
401  Vista Village Drive,"Vista , California 92083","401  Vista Village Drive, Vista , California 92083",33.2005109,-117.2460708
2290 Oak Grove Rd,"Walnut Creek, California 94598","2290 Oak Grove Rd, Walnut Creek, California 94598",37.9294519,-122.0161441
1153 Locust Street,"Walnut Creek, California 94596","1153 Locust Street, Walnut Creek, California 94596",37.8952933,-122.0618165
1415 Main Street,"Watsonville, California 95076","1415 Main Street, Watsonville, California 95076",36.9148695,-121.7742164
1665  Main Street,"Weaverville, California 96093","1665  Main Street, Weaverville, California 96093",40.721048,-122.927197
21361 Gulf Freeway,"Webster, Texas 77598","21361 Gulf Freeway, Webster, Texas 77598",29.5194027,-95.122483
2650 East Garvey Avenue South,"West Covina, California 91791","2650 East Garvey Avenue South, West Covina, California 91791",34.0706209,-117.8883964
8775   Sunset Boulevard,"West Hollywood, California 90069","8775   Sunset Boulevard, West Hollywood, California 90069",34.0913116,-118.3825882
1151 Galleria Blvd,"Roseville, California 95678-1937","1151 Galleria Blvd, Roseville, California 95678-1937",38.7734303,-121.269432
1025 Westminster Mall,"Westminster, California 92683","1025 Westminster Mall, Westminster, California 92683",33.7474711,-118.0123874
464 6th Street,"Williams, California 95987","464 6th Street, Williams, California 95987",39.1554861,-122.1490139
8852 Lakewood Drive,"Windsor, California 95492","8852 Lakewood Drive, Windsor, California 95492",38.5489806,-122.8046226
2185 Bronze Star Drive,"Woodland, California 95776","2185 Bronze Star Drive, Woodland, California 95776",38.6727067,-121.7248895
40865 Sunrise Canyon Road,"Yermo, California 92398","40865 Sunrise Canyon Road, Yermo, California 92398",34.9192573,-116.7693548
36017 Calico Road,"Yermo, California 92398","36017 Calico Road, Yermo, California 92398",34.907921,-116.8352704
18601-18659 Yorba Linda Blvd,"Yorba Linda, California 92886","18601-18659 Yorba Linda Blvd, Yorba Linda, California 92886",33.8895328,-117.8086119
18210-18380 Yorba Linda Blvd,"Yorba Linda, California 92886","18210-18380 Yorba Linda Blvd, Yorba Linda, California 92886",33.8877932,-117.8147486
1808 Fort Jones Road,"Yreka, California 96097","1808 Fort Jones Road, Yreka, California 96097",41.7013707,-122.6450598
1475 Tharp Road,"Yuba City, California 95993","1475 Tharp Road, Yuba City, California 95993",39.1481072,-121.6470456
57220-57274  Twentynine Palms Highway,"Yucca Valley, California 92284","57220-57274  Twentynine Palms Highway, Yucca Valley, California 92284",34.1241322,-116.4161732
715 6th St,"Alamosa, Colorado 81101","715 6th St, Alamosa, Colorado 81101",37.4675058,-105.8678537
38750 Highway 82,"Aspen, Colorado 81611-2506","38750 Highway 82, Aspen, Colorado 81611-2506",39.2051704,-106.8587699
3100 28th St,"Boulder, Colorado 80301","3100 28th St, Boulder, Colorado 80301",40.0311694,-105.2577434
1710 29th Street,"Boulder, Colorado 80301","1710 29th Street, Boulder, Colorado 80301",40.0178849,-105.2560518
5112 East Bromley Lane,"Brighton, Colorado 80603","5112 East Bromley Lane, Brighton, Colorado 80603",39.9716307,-104.7490893
1156 CO-71,"Brush, Colorado 80723-2902","1156 CO-71, Brush, Colorado 80723-2902",40.2710857,-103.6226003
9555 East County Line Road,"Centennial, Colorado 80112","9555 East County Line Road, Centennial, Colorado 80112",39.5677388,-104.8768402
215 North Cascade Avenue,"Colorado Springs, Colorado 80903-1312","215 North Cascade Avenue, Colorado Springs, Colorado 80903-1312",38.8374724,-104.8245769
25637 Conifer Road,"Conifer, Colorado 80433","25637 Conifer Road, Conifer, Colorado 80433",39.5442012,-105.2920762
700 East Victory Way,"Craig, Colorado 81625","700 East Victory Way, Craig, Colorado 81625",40.5138302,-107.5385423
44 Pontiac St,"Denver, Colorado 80224","44 Pontiac St, Denver, Colorado 80224",39.7177811,-104.9058251
6691 6691 Tower Rd,"Denver, Colorado 80249","6691 6691 Tower Rd, Denver, Colorado 80249",39.8177906,-104.7725526
5940 5940 Tower Rd,"Denver, Colorado 80249","5940 5940 Tower Rd, Denver, Colorado 80249",39.8043471,-104.7700923
4310 Airport Way,"Denver, Colorado 80239-5796","4310 Airport Way, Denver, Colorado 80239-5796",39.774787,-104.7951675
434 Edwards Access Road,"Edwards, Colorado 81632","434 Edwards Access Road, Edwards, Colorado 81632",39.6481983,-106.587504
333 Wonderview Avenue,"Estes Park, Colorado 80517-9665","333 Wonderview Avenue, Estes Park, Colorado 80517-9665",40.3828836,-105.5192192
125 Wulfsohn Road,"Glenwood Springs, Colorado 81601-8700","125 Wulfsohn Road, Glenwood Springs, Colorado 81601-8700",39.5528668,-107.3411386
2424 U.S-6,"Grand Junction, Colorado 81505-1109","2424 U.S-6, Grand Junction, Colorado 81505-1109",39.0922698,-108.6017723
1319 Miner Street,"Idaho Springs, Colorado 80452","1319 Miner Street, Idaho Springs, Colorado 80452",39.7416979,-105.5190689
5201 Nugget Rd,"Johnstown, Colorado 80534","5201 Nugget Rd, Johnstown, Colorado 80534",40.333753,-104.9830878
605 Park Avenue,"Kremmling, Colorado 80459","605 Park Avenue, Kremmling, Colorado 80459",40.0592574,-106.3877738
5505 W 20th Ave,"Edgewater, Colorado 80214","5505 W 20th Ave, Edgewater, Colorado 80214",39.7491723,-105.0572929
14500 West Colfax Avenue,"Lakewood, Colorado 80401","14500 West Colfax Avenue, Lakewood, Colorado 80401",39.7317429,-105.1595216
109  E Beech St,"Lamar , Colorado 81052","109  E Beech St, Lamar , Colorado 81052",38.0897221,-102.6184143
2221 6th St.,"Limon, Colorado 80828","2221 6th St., Limon, Colorado 80828",39.2689495,-103.7088432
8401 Park Meadows Center Drive,"Lone Tree, Colorado 80124-5128","8401 Park Meadows Center Drive, Lone Tree, Colorado 80124-5128",39.5621454,-104.8761104
4705 Clydesdale Parkway,"Loveland, Colorado 80538-9347","4705 Clydesdale Parkway, Loveland, Colorado 80538-9347",40.4405104,-104.9905819
533 North 1st Street,"Montrose, Colorado 81401","533 North 1st Street, Montrose, Colorado 81401",38.4817422,-107.8760331
17970 Knollwood Drive,"Monument, Colorado 80132","17970 Knollwood Drive, Monument, Colorado 80132",39.0922888,-104.8521437
455 Mountain Village Blvd,"Mountain Village, Colorado 81435-9459","455 Mountain Village Blvd, Mountain Village, Colorado 81435-9459",37.932421,-107.8541291
28 Cardinal Way,"Parachute, Colorado 81635","28 Cardinal Way, Parachute, Colorado 81635",39.4526169,-108.0463434
6250 US Highway 285,"Poncha Springs, Colorado 81242-0000","6250 US Highway 285, Poncha Springs, Colorado 81242-0000",38.5121871,-106.076312
101-149  Richmond Avenue,"Pueblo , Colorado 81003","101-149  Richmond Avenue, Pueblo , Colorado 81003",38.2669946,-104.6102698
675 Wapiti Ct,"Rifle, Colorado 81650","675 Wapiti Ct, Rifle, Colorado 81650",39.522957,-107.7744616
101 Ruby Ranch Road,"Silverthorne, Colorado 80498","101 Ruby Ranch Road, Silverthorne, Colorado 80498",39.6460755,-106.0796328
246-V  Rainbow Dr,"Silverthorne, Colorado 80498-0497","246-V  Rainbow Dr, Silverthorne, Colorado 80498-0497",39.6303982,-106.0697958
2  South Marshall Road,"Superior, Colorado 80027","2  South Marshall Road, Superior, Colorado 80027",39.9541184,-105.1630272
237 East 120th Avenue,"Thornton, Colorado 80233","237 East 120th Avenue, Thornton, Colorado 80233",39.9144861,-104.987031
9960 Santa Fe Trail,"Trinidad, Colorado 81082-3968","9960 Santa Fe Trail, Trinidad, Colorado 81082-3968",37.1336736,-104.5198315
7450 Federal Blvd,"Westminster, Colorado 80030","7450 Federal Blvd, Westminster, Colorado 80030",39.8320519,-105.0243541
7 Backus Ave,"Danbury, Connecticut 06810-7422","7 Backus Ave, Danbury, Connecticut 06810-7422",41.3804789,-73.4784187
1 E Trail,"Darien, Connecticut 06820-5513","1 E Trail, Darien, Connecticut 06820-5513",41.0736008,-73.4609324
1 West Ave.,"Darien, Connecticut 06820-4737","1 West Ave., Darien, Connecticut 06820-4737",41.0678549,-73.5043948
165 165 Round Hill Road,"Fairfield, Connecticut 06824","165 165 Round Hill Road, Fairfield, Connecticut 06824",41.1463506,-73.2559874
267 267 Round Hill Road,"Fairfield, Connecticut 06824","267 267 Round Hill Road, Fairfield, Connecticut 06824",41.1479388,-73.2566773
3000 3000 Merritt Parkway,"Greenwich, Connecticut 06830-6831","3000 3000 Merritt Parkway, Greenwich, Connecticut 06830-6831",41.0410628,-73.6722776
2000 2000 Merritt Parkway,"Greenwich, Connecticut 06830-6831","2000 2000 Merritt Parkway, Greenwich, Connecticut 06830-6831",41.0412052,-73.6730506
2100 Dixwell Avenue,"Hamden, Connecticut 06514","2100 Dixwell Avenue, Hamden, Connecticut 06514",41.3697456,-72.9205872
165 Leibert Road,"Hartford, Connecticut 06120","165 Leibert Road, Hartford, Connecticut 06120",41.7872375,-72.6557
777 Main Street,"Hartford, Connecticut 06824-2308","777 Main Street, Hartford, Connecticut 06824-2308",41.766219,-72.6738298
160 River Road,"LIsbon, Connecticut 06351","160 River Road, LIsbon, Connecticut 06351",41.5859004,-71.9919982
1-95 North Avenue,"Madison, Connecticut 06443","1-95 North Avenue, Madison, Connecticut 06443",41.2745327,-72.5811389
1-95 South Street,"Madison, Connecticut 06443","1-95 South Street, Madison, Connecticut 06443",41.2729507,-72.551518
1470 Pleasant Valley Road,"Manchester, Connecticut 06042-8764","1470 Pleasant Valley Road, Manchester, Connecticut 06042-8764",41.805839,-72.5596714
903 East Main Street,"Meriden, Connecticut 06450","903 East Main Street, Meriden, Connecticut 06450",41.5273408,-72.7734026
1201 Boston Post Road,"Milford, Connecticut 06460","1201 Boston Post Road, Milford, Connecticut 06460",41.2359938,-73.035543
1 1 Connecticut Turnpike,"Milford, Connecticut 06460-6461","1 1 Connecticut Turnpike, Milford, Connecticut 06460-6461",41.2457363,-73.0085188
2 2 Connecticut Turnpike,"Milford, Connecticut 06460-6461","2 2 Connecticut Turnpike, Milford, Connecticut 06460-6461",41.2467647,-73.0102556
12  Coogan Boulevard,"Mystic, Connecticut 06355","12  Coogan Boulevard, Mystic, Connecticut 06355",41.3721059,-71.9551154
500  Sargent Drive,"New Haven, Connecticut 06511","500  Sargent Drive, New Haven, Connecticut 06511",41.296474,-72.9186954
351 North Frontage Road,"New London, Connecticut 06320","351 North Frontage Road, New London, Connecticut 06320",41.3720799,-72.1182872
291 Danbury Road,"New Milford, Connecticut 06776","291 Danbury Road, New Milford, Connecticut 06776",41.5384574,-73.4215202
11 East Main Street,"North Canaan, Connecticut 06018","11 East Main Street, North Canaan, Connecticut 06018",42.0247956,-73.3217734
1145 High Ridge Rd,"North Stamford, Connecticut 06905-1215","1145 High Ridge Rd, North Stamford, Connecticut 06905-1215",41.1083162,-73.5468056
632 Cromwell Ave,"Rocky Hill, Connecticut 06067","632 Cromwell Ave, Rocky Hill, Connecticut 06067",41.6535244,-72.678749
600 Executive Blvd S,"Southington, Connecticut 06489","600 Executive Blvd S, Southington, Connecticut 06489",41.6112499,-72.9012749
2233 Summer Street,"Stamford, Connecticut 06905","2233 Summer Street, Stamford, Connecticut 06905",41.0675175,-73.5450344
145  Talcottville Rd,"Vernon  , Connecticut 06066","145  Talcottville Rd, Vernon  , Connecticut 06066",41.8313796,-72.4948426
160 Kukas Lane,"Waterbury, Connecticut 06705","160 Kukas Lane, Waterbury, Connecticut 06705",41.5368343,-73.0057428
1445 New Britain Ave.,"West Hartford, Connecticut 06110-1659","1445 New Britain Ave., West Hartford, Connecticut 06110-1659",41.7232377,-72.7585723
2621 Philadelphia Pike,"Claymont, Delaware 19703","2621 Philadelphia Pike, Claymont, Delaware 19703",39.7942411,-75.4689913
605 Naamans Road,"Brandywine, Delaware 19703","605 Naamans Road, Brandywine, Delaware 19703",39.8180761,-75.4559342
2800 North Dupont Highway,"Dover, Delaware 19901","2800 North Dupont Highway, Dover, Delaware 19901",39.194791,-75.5471394
17663 Dartmouth Drive,"Lewes, Delaware 19958-4203","17663 Dartmouth Drive, Lewes, Delaware 19958-4203",38.7440109,-75.1539403
5018 Summit Bridge Road,"Middletown, Delaware 19709","5018 Summit Bridge Road, Middletown, Delaware 19709",39.4795663,-75.721419
970 Christiana Bypass,"New Castle, Delaware 19702","970 Christiana Bypass, New Castle, Delaware 19702",39.6653691,-75.6673201
4000  North Dupont Highway,"New Castle, Delaware 19720","4000  North Dupont Highway, New Castle, Delaware 19720",39.7096328,-75.5625024
530 John F Kennedy Memorial Hwy,"Newark, Delaware 19702-5427","530 John F Kennedy Memorial Hwy, Newark, Delaware 19702-5427",39.6837226,-75.7496572
274 E Chestnut Hill Rd,"Newark, Delaware 19713","274 E Chestnut Hill Rd, Newark, Delaware 19713",39.6623243,-75.735559
19791 Coastal Hwy,"Rehoboth Beach, Delaware 19971","19791 Coastal Hwy, Rehoboth Beach, Delaware 19971",38.7170409,-75.1096268
30155 Veterans Way,"Rehoboth, Delaware 19971","30155 Veterans Way, Rehoboth, Delaware 19971",38.7125857,-75.1042393
22932  Sussex Highway,"Seaford, Delaware 19973","22932  Sussex Highway, Seaford, Delaware 19973",38.6591315,-75.5945905
130 M Street NE,"Washington, District of Columbia 20002","130 M Street NE, Washington, District of Columbia 20002",38.9059426,-77.005025
3401 Idaho Ave NW,"Washington, District of Columbia 20016","3401 Idaho Ave NW, Washington, District of Columbia 20016",38.9354795,-77.073387
2438 Market Street NE,"Washington, District of Columbia 20018","2438 Market Street NE, Washington, District of Columbia 20018",38.9201306,-76.9554404
1855 Wisconsin Ave NW,"Washington, District of Columbia 20007","1855 Wisconsin Ave NW, Washington, District of Columbia 20007",38.9160093,-77.0676802
15560  Northwest US Highway 441,"Alachua, Florida 32615","15560  Northwest US Highway 441, Alachua, Florida 32615",29.7959713,-82.5012764
355 East Altamonte Drive,"Altamonte Springs, Florida 32701","355 East Altamonte Drive, Altamonte Springs, Florida 32701",28.6636164,-81.380534
1615  South Orange Blossom Trail,"Apopka, Florida 32703","1615  South Orange Blossom Trail, Apopka, Florida 32703",28.6540461,-81.4686642
1737  East Oak Street,"Arcadia, Florida 34266","1737  East Oak Street, Arcadia, Florida 34266",27.2101698,-81.8380577
21005 21005 Biscayne Boulevard,"Aventura, Florida 33180","21005 21005 Biscayne Boulevard, Aventura, Florida 33180",25.970408,-80.143439
19501 19501 Biscayne Boulevard,"Aventura, Florida 33180","19501 19501 Biscayne Boulevard, Aventura, Florida 33180",25.9569669,-80.1414627
251  Key Deer Boulevard,"Big Pine Key, Florida 33043","251  Key Deer Boulevard, Big Pine Key, Florida 33043",24.6731429,-81.3568707
6000 Glades Road,"Boca Raton, Florida 33431","6000 Glades Road, Boca Raton, Florida 33431",26.3651819,-80.1330259
650  North Congress Avenue,"Boynton Beach, Florida 33426","650  North Congress Avenue, Boynton Beach, Florida 33426",26.5334903,-80.0878883
2400 W Brandon Blvd,"Brandon, Florida 33511-4721","2400 W Brandon Blvd, Brandon, Florida 33511-4721",27.9414097,-82.3241627
31100 Cortez Boulevard,"Brooksville, Florida 34602","31100 Cortez Boulevard, Brooksville, Florida 34602",28.5214823,-82.2298906
"Mile Post 229, Florida's Turnpike","Saint Cloud, Florida 34769","Mile Post 229, Florida's Turnpike, Saint Cloud, Florida 34769",28.0938914,-81.2733912
6210 W Irlo Bronson Memorial Hwy,"Celebration, Florida 34747","6210 W Irlo Bronson Memorial Hwy, Celebration, Florida 34747",28.3321649,-81.5327309
1698 Main St,"Chipley, Florida 32428","1698 Main St, Chipley, Florida 32428",30.7521591,-85.551399
26508 US Highway 19 North,"Clearwater, Florida 33761","26508 US Highway 19 North, Clearwater, Florida 33761",28.0152027,-82.7370621
2670 South Ferdon Boulevard,"Crestview, Florida 32536","2670 South Ferdon Boulevard, Crestview, Florida 32536",30.7335061,-86.5672801
505 US-19,"Crystal River, Florida 34429","505 US-19, Crystal River, Florida 34429",28.8990208,-82.5864725
11101  Southwest 184 Strett,"Cutler Bay, Florida 33157","11101  Southwest 184 Strett, Cutler Bay, Florida 33157",25.5983811,-80.3720816
8103 Lake Wilson Road,"Davenport, Florida 33896","8103 Lake Wilson Road, Davenport, Florida 33896",28.2588284,-81.5900289
1904 South University Drive,"Davie, Florida 33324","1904 South University Drive, Davie, Florida 33324",26.0955123,-80.250297
2500 West International Speedway Boulevard,"Daytona Beach, Florida 32114","2500 West International Speedway Boulevard, Daytona Beach, Florida 32114",29.1791833,-81.0830543
20 SW 12th Avenue,"Deerfield Beach, Florida 33442","20 SW 12th Avenue, Deerfield Beach, Florida 33442",26.3171407,-80.1194479
Corner of Baldwin Ave. & 10th St,"De Funiak Springs, Florida 32435-2853","Corner of Baldwin Ave. & 10th St, De Funiak Springs, Florida 32435-2853",30.7204645,-86.116632
14851 Lyons Road,"Delray Beach, Florida 33446","14851 Lyons Road, Delray Beach, Florida 33446",26.4549766,-80.1895988
3400 Howland Blvd,"Deltona, Florida 32725","3400 Howland Blvd, Deltona, Florida 32725",28.9499726,-81.2509159
3300  Northwest 87th Avenue,"Doral, Florida 33172","3300  Northwest 87th Avenue, Doral, Florida 33172",25.805955,-80.3378667
4431 PGA Blvd,"Palm Beach Gardens, Florida 33410","4431 PGA Blvd, Palm Beach Gardens, Florida 33410",26.8391246,-80.1038594
10801  Corkscrew Road,"Estero, Florida 33928","10801  Corkscrew Road, Estero, Florida 33928",26.4368756,-81.7752843
33505 South Dixie Hwy,"Florida City, Florida 33034-5628","33505 South Dixie Hwy, Florida City, Florida 33034-5628",25.4567406,-80.4745841
184 Florida's Turnpike,"Okeechobee, Florida 34972-4974","184 Florida's Turnpike, Okeechobee, Florida 34972-4974",27.5746081,-80.8028509
2414  East Sunrise Boulevard,"Fort Lauderdale, Florida 33304","2414  East Sunrise Boulevard, Fort Lauderdale, Florida 33304",26.1366637,-80.1124983
6191  Powerline Road,"Fort Lauderdale, Florida 33309","6191  Powerline Road, Fort Lauderdale, Florida 33309",26.2026694,-80.156379
2620 West Broward Boulevard,"Fort Lauderdale, Florida 33312","2620 West Broward Boulevard, Fort Lauderdale, Florida 33312",26.1212153,-80.1775673
9355 Six Mile Cypress Parkway,"Fort Myers, Florida 33966-6527","9355 Six Mile Cypress Parkway, Fort Myers, Florida 33966-6527",26.6073278,-81.8104375
9903 Gulf Coast Main Street,"Fort Meyers, Florida 33913","9903 Gulf Coast Main Street, Fort Meyers, Florida 33913",26.4835441,-81.7877586
5575 Okeechobee Road,"Fort Pierce, Florida 34947","5575 Okeechobee Road, Fort Pierce, Florida 34947",27.4172085,-80.3817118
9401 NW 39th Ave,"Gainesville, Florida 32606","9401 NW 39th Ave, Gainesville, Florida 32606",29.6884683,-82.4428667
3217 Southwest 35th Boulevard,"Gainesville, Florida 32608","3217 Southwest 35th Boulevard, Gainesville, Florida 32608",29.6254254,-82.3782153
1430 Tiger Point Blvd,"Gulf Breeze, Florida 32563","1430 Tiger Point Blvd, Gulf Breeze, Florida 32563",30.3899593,-87.061943
701  North Federal Highway,"Hallandale Beach  , Florida 33009","701  North Federal Highway, Hallandale Beach  , Florida 33009",25.9932387,-80.1428843
18600  NW 87th Ave,"Hialeah, Florida 33015","18600  NW 87th Ave, Hialeah, Florida 33015",25.9443947,-80.3428511
13221 City Center Blvd,"Jacksonville, Florida 32218","13221 City Center Blvd, Jacksonville, Florida 32218",30.476846,-81.640496
703 Chaffee Road,"Jacksonville, Florida 32221","703 Chaffee Road, Jacksonville, Florida 32221",30.3067694,-81.8465751
2220 County Road 210,"St. Johns, Florida 32259","2220 County Road 210, St. Johns, Florida 32259",30.0614084,-81.5136863
4866 Gate Parkway,"Jacksonville, Florida 32246","4866 Gate Parkway, Jacksonville, Florida 32246",30.2537841,-81.5366726
5735 Philips Highway,"Jacksonville, Florida 32216","5735 Philips Highway, Jacksonville, Florida 32216",30.2656965,-81.6169642
6787  Wilson Boulevard,"Jacksonville, Florida 32210","6787  Wilson Boulevard, Jacksonville, Florida 32210",30.2708436,-81.7559706
6723 US-129,"Jasper, Florida 32052","6723 US-129, Jasper, Florida 32052",30.4458829,-82.9338536
751  Centerview Blvd,"Kissimmee, Florida 34741","751  Centerview Blvd, Kissimmee, Florida 34741",28.3423275,-81.410899
7940 West Irlo Bronson Memorial Highway,"Kissimmee, Florida 34747","7940 West Irlo Bronson Memorial Highway, Kissimmee, Florida 34747",28.3453565,-81.6047052
116 North Highway 27/441,"Lady Lake, Florida 32159","116 North Highway 27/441, Lady Lake, Florida 32159",28.911548,-81.919841
14170  US-441,"Lake City , Florida 32024","14170  US-441, Lake City , Florida 32024",29.9954874,-82.5985304
2941 W US Hwy 90,"Lake City, Florida 32055-7284","2941 W US Hwy 90, Lake City, Florida 32055-7284",30.1808342,-82.6804843
4320 US Highway 98 North,"Lakeland, Florida 33809","4320 US Highway 98 North, Lakeland, Florida 33809",28.0982898,-81.9744473
5200  South Jefferson Street,"Lamont, Florida 32336","5200  South Jefferson Street, Lamont, Florida 32336",30.472004,-83.8918582
25155  Maren Way,"Land O' Lakes, Florida 33559","25155  Maren Way, Land O' Lakes, Florida 33559",28.1896508,-82.4003676
1201 W Lantana Rd,"Lantana, Florida 33462","1201 W Lantana Rd, Lantana, Florida 33462",26.5878066,-80.0637801
6458 US-129,"Live Oak, Florida 32060","6458 US-129, Live Oak, Florida 32060",30.3331556,-82.9599015
3907 Southwest SR 14,"Madison, Florida 32340","3907 Southwest SR 14, Madison, Florida 32340",30.4339169,-83.4535176
2070 FL-71,"Marianna, Florida 32448","2070 FL-71, Marianna, Florida 32448",30.7159832,-85.1847687
4429  FL-518,"Melbourne, Florida 32934","4429  FL-518, Melbourne, Florida 32934",28.1203801,-80.6991534
1661 Pennsylvania Avenue,"Miami Beach, Florida 33139","1661 Pennsylvania Avenue, Miami Beach, Florida 33139",25.7913308,-80.1341797
959 West Avenue,"Miami Beach, Florida 33139","959 West Avenue, Miami Beach, Florida 33139",25.7798299,-80.1417259
2700 NW 183rd St,"Miami Gardens, Florida 33056","2700 NW 183rd St, Miami Gardens, Florida 33056",25.9405359,-80.2457599
6848 Bird Road,"Miami, Florida 33155","6848 Bird Road, Miami, Florida 33155",25.7322951,-80.3061845
900 S Miami Ave,"Miami, Florida 33130","900 S Miami Ave, Miami, Florida 33130",25.7651485,-80.1942628
90 NE 41st Street,"Miami, Florida 33137","90 NE 41st Street, Miami, Florida 33137",25.8140596,-80.1940632
7636 NE 4th Ct,"Miami, Florida 33138","7636 NE 4th Ct, Miami, Florida 33138",25.8453888,-80.1882911
8312 South Dixie Highway,"Miami, Florida 33143","8312 South Dixie Highway, Miami, Florida 33143",25.6933626,-80.3047708
6971 SW 24th Street,"Miami, Florida 33155","6971 SW 24th Street, Miami, Florida 33155",25.7486363,-80.3085034
21 SE 7th St,"Miami, Florida 33131","21 SE 7th St, Miami, Florida 33131",25.767664,-80.192444
701 South Miami Avenue,"Miami, Florida 33130-1946","701 South Miami Avenue, Miami, Florida 33130-1946",25.7669682,-80.1934346
12100 Miramar Parkway,"Miramar, Florida 33025","12100 Miramar Parkway, Miramar, Florida 33025",25.977107,-80.3076437
499 Bayfront Place,"Naples, Florida 34102-6454","499 Bayfront Place, Naples, Florida 34102-6454",26.1440841,-81.7888692
2433 Tarpon Bay Boulevard,"Naples, Florida 34119","2433 Tarpon Bay Boulevard, Naples, Florida 34119",26.2707332,-81.7397295
4026  US-19,"New Port Richey, Florida 34652","4026  US-19, New Port Richey, Florida 34652",28.2175278,-82.7365686
14075 Biscayne Boulevard,"North Miami Beach, Florida 33181","14075 Biscayne Boulevard, North Miami Beach, Florida 33181",25.9062096,-80.1563142
3312 West Silver Springs Boulevard,"Ocala, Florida 34474","3312 West Silver Springs Boulevard, Ocala, Florida 34474",29.1859135,-82.1775579
4414 SW College Road,"Ocala, Florida 34474-4790","4414 SW College Road, Ocala, Florida 34474-4790",29.1403527,-82.1924352
47801 West State Road 84,"Ochopee, Florida 34141","47801 West State Road 84, Ochopee, Florida 34141",26.2306172,-80.8555018
12048 FL-54,"Odessa, Florida 33556","12048 FL-54, Odessa, Florida 33556",28.1895037,-82.6161503
299 Florida-91,"Wildwood, Florida 34785","299 Florida-91, Wildwood, Florida 34785",28.7867279,-81.982254
5910 Central Florida Pkwy,"Orlando, Florida 32821","5910 Central Florida Pkwy, Orlando, Florida 32821",28.4057866,-81.4575952
8001  South Orange Blossom Trail,"Orlando, Florida 32809","8001  South Orange Blossom Trail, Orlando, Florida 32809",28.4470856,-81.3948148
7826  7826 West Sand Lake Road,"Orlando, Florida 32819","7826  7826 West Sand Lake Road, Orlando, Florida 32819",28.449748,-81.4899014
8049 E Colonial Dr,"Orlando, Florida 32807","8049 E Colonial Dr, Orlando, Florida 32807",28.5688553,-81.2782928
4750 Millenia Plaza Way,"Orlando, Florida 32839","4750 Millenia Plaza Way, Orlando, Florida 32839",28.493286,-81.4301199
413 North Alafaya Trail,"Orlando, Florida 32828","413 North Alafaya Trail, Orlando, Florida 32828",28.5545475,-81.2003099
8462 Palm Parkway,"Orlando, Florida 32836","8462 Palm Parkway, Orlando, Florida 32836",28.3847292,-81.5003176
6500 6500 West Sand Lake Road,"Orlando, Florida 32819-8902","6500 6500 West Sand Lake Road, Orlando, Florida 32819-8902",28.4494353,-81.4666557
5600 State Rd 100 E,"Palm Coast, Florida 32164","5600 State Rd 100 E, Palm Coast, Florida 32164",29.4763476,-81.2063959
14100 Panama City Beach Parkway,"Panama City Beach, Florida 32413","14100 Panama City Beach Parkway, Panama City Beach, Florida 32413",30.2117099,-85.849444
1600 South Hiatus Rd,"Pembroke Pines, Florida 33025","1600 South Hiatus Rd, Pembroke Pines, Florida 33025",25.9940019,-80.2964863
14804-14954 Pines Boulevard,"Pembroke Pines, Florida 33027","14804-14954 Pines Boulevard, Pembroke Pines, Florida 33027",26.0066773,-80.3448961
2717  South Byron Butler Parkway,"Perry, Florida 32348","2717  South Byron Butler Parkway, Perry, Florida 32348",30.0866214,-83.5720608
3101 Gandy Blvd.,"Pinellas Park, Florida 33782-6203","3101 Gandy Blvd., Pinellas Park, Florida 33782-6203",27.8457909,-82.6775401
2705 Thonotosassa Road,"Plant City, Florida 33563","2705 Thonotosassa Road, Plant City, Florida 33563",28.025915,-82.152088
801 S. University Drive,"Plantation, Florida 33324-3336","801 S. University Drive, Plantation, Florida 33324-3336",26.1106192,-80.2520711
3601 North Federal Highway,"Pompano Beach, Florida 33431","3601 North Federal Highway, Pompano Beach, Florida 33431",26.2761282,-80.0980124
65 Florida's Turnpike,"Pompano Beach, Florida 33069","65 Florida's Turnpike, Pompano Beach, Florida 33069",26.2248419,-80.1842043
5302 South Williamson Blvd,"Port Orange, Florida 32128-3702","5302 South Williamson Blvd, Port Orange, Florida 32128-3702",29.108561,-81.034635
144 Florida's Turnpike,"Port Saint Lucie, Florida 34984","144 Florida's Turnpike, Port Saint Lucie, Florida 34984",27.3021036,-80.3729188
1701 NW Peacock Blvd,"Port St. Lucie, Florida 34986-2501","1701 NW Peacock Blvd, Port St. Lucie, Florida 34986-2501",27.3129341,-80.4067437
26415  Indian Trail Drive,"Punta Gorda, Florida 33950","26415  Indian Trail Drive, Punta Gorda, Florida 33950",26.8956618,-82.0110376
9617  Highway 301 South,"Riverview, Florida 33578","9617  Highway 301 South, Riverview, Florida 33578",27.8581948,-82.3272604
10665 Big Bend Road,"Riverview, Florida 33578","10665 Big Bend Road, Riverview, Florida 33578",27.7903482,-82.3326474
5410 Murrell Road,"Viera, Florida 32955","5410 Murrell Road, Viera, Florida 32955",28.2676129,-80.7199725
3637  34th Street South,"Saint Petersburg, Florida 33711","3637  34th Street South, Saint Petersburg, Florida 33711",27.7348574,-82.6802819
1201 WP Ball Boulevard,"Sanford, Florida 32771","1201 WP Ball Boulevard, Sanford, Florida 32771",28.7979564,-81.3366755
5903 Honore Ave,"Sarasota, Florida 34238","5903 Honore Ave, Sarasota, Florida 34238",27.3864174,-82.4649205
5321  Clark Road,"Sarasota, Florida 34233","5321  Clark Road, Sarasota, Florida 34233",27.2700548,-82.4627868
10950 Fellsmere Rd,"Sebastian, Florida 32958","10950 Fellsmere Rd, Sebastian, Florida 32958",27.7680432,-80.5494223
3838 US Hwy 27 S,"Sebring, Florida 33870","3838 US Hwy 27 S, Sebring, Florida 33870",27.4648929,-81.4341103
2700 Florida 16,"St. Augustine, Florida 32092-2095","2700 Florida 16, St. Augustine, Florida 32092-2095",29.9249829,-81.4172527
200 World Commerce Parkway,"Saint Augustine, Florida 32092","200 World Commerce Parkway, Saint Augustine, Florida 32092",29.983727,-81.464048
S.R. 16 and Inman Road,"St. Augustine, Florida 32084","S.R. 16 and Inman Road, St. Augustine, Florida 32084",29.9154545,-81.4029869
2401  South Kanner Highway,"Stuart, Florida 34994","2401  South Kanner Highway, Stuart, Florida 34994",27.1753268,-80.2525185
3726 Sun City Center Blvd,"Sun City Center, Florida 33573","3726 Sun City Center Blvd, Sun City Center, Florida 33573",27.7131733,-82.3757846
3528 Thomasville Rd,"Tallahassee, Florida 32309-3406","3528 Thomasville Rd, Tallahassee, Florida 32309-3406",30.5110344,-84.2471161
2020 W Pensacola St,"Tallahassee, Florida 32304","2020 W Pensacola St, Tallahassee, Florida 32304",30.4421089,-84.3185387
804 East Bearss Avenue,"Tampa, Florida 33613","804 East Bearss Avenue, Tampa, Florida 33613",28.0887625,-82.4521303
401  North Dale Mabry Highway,"Tampa, Florida 33609","401  North Dale Mabry Highway, Tampa, Florida 33609",27.9490077,-82.5048837
2100 West Swann Avenue,"Tampa, Florida 33606","2100 West Swann Avenue, Tampa, Florida 33606",27.9373707,-82.4809386
2502 North 50th Street,"Tampa, Florida 33619-2742","2502 North 50th Street, Tampa, Florida 33619-2742",27.9656702,-82.4023577
1171 South Pinellas Ave,"Tarpon Springs, Florida 34689","1171 South Pinellas Ave, Tarpon Springs, Florida 34689",28.1361613,-82.7560788
3055 Columbia Blvd,"Titusville, Florida 32780","3055 Columbia Blvd, Titusville, Florida 32780",28.551259,-80.8414114
Mile Marker 263 Florida Turnpike,"Turkey Lake, Florida 32835","Mile Marker 263 Florida Turnpike, Turkey Lake, Florida 32835",28.5137664,-81.4981949
370 Commercial Court,"Venice, Florida 34292","370 Commercial Court, Venice, Florida 34292",27.1077685,-82.3853181
9050 20th Street,"Vero Beach, Florida 32966","9050 20th Street, Vero Beach, Florida 32966",27.6401843,-80.5131081
206 Palm Bay Road,"West Melbourne, Florida 32904-0000","206 Palm Bay Road, West Melbourne, Florida 32904-0000",28.037013,-80.664151
2300 45th St,"West Palm Beach, Florida 33407","2300 45th St, West Palm Beach, Florida 33407",26.7576715,-80.0894593
94 Florida's Turnpike,"West Palm Beach, Florida 33413","94 Florida's Turnpike, West Palm Beach, Florida 33413",26.6342948,-80.1748644
7289 Garden Road,"West Palm Beach, Florida 33404","7289 Garden Road, West Palm Beach, Florida 33404",26.7824071,-80.0926887
13501 West Colonial Drive,"Winter Garden, Florida 34787","13501 West Colonial Drive, Winter Garden, Florida 34787",28.5518794,-81.5840924
901 North Orlando Avenue,"Winter Park, Florida 32789","901 North Orlando Avenue, Winter Park, Florida 32789",28.6049525,-81.3659505
20 Homegrown Way,"Yulee, Florida 32097","20 Homegrown Way, Yulee, Florida 32097",30.6235499,-81.6380336
3500 Baker Road,"Acworth, Georgia 30101","3500 Baker Road, Acworth, Georgia 30101",34.0763377,-84.6515294
7867 Adairsville Hwy,"Adairsville , Georgia 30103","7867 Adairsville Hwy, Adairsville , Georgia 30103",34.3783912,-84.9307374
400 Avalon Boulevard,"Alpharetta, Georgia 30009","400 Avalon Boulevard, Alpharetta, Georgia 30009",34.0712153,-84.2768461
1791 Oconee Connector,"Athens, Georgia 30606","1791 Oconee Connector, Athens, Georgia 30606",33.916523,-83.4549052
1380 Atlantic Drive NW,"Atlanta, Georgia 30363-1142","1380 Atlantic Drive NW, Atlanta, Georgia 30363-1142",33.7929288,-84.3955967
3393 Peachtree Road Northeast,"Atlanta, Georgia 30326","3393 Peachtree Road Northeast, Atlanta, Georgia 30326",33.8467259,-84.3624199
3393 Peachtree Road,"Atlanta, Georgia 30326","3393 Peachtree Road, Atlanta, Georgia 30326",33.8485591,-84.3647302
4329 Belair Frontage Road,"Augusta, Georgia 30909","4329 Belair Frontage Road, Augusta, Georgia 30909",33.4815539,-82.130072
1069 Stevens Creek Road,"Augusta, Georgia 30907-3203","1069 Stevens Creek Road, Augusta, Georgia 30907-3203",33.5147871,-82.0453791
380 Millennium Boulevard,"Brunswick, Georgia 31525","380 Millennium Boulevard, Brunswick, Georgia 31525",31.2455487,-81.502609
1695 Mall of Georgia Blvd,"Buford, Georgia 30519","1695 Mall of Georgia Blvd, Buford, Georgia 30519",34.0617604,-83.9935505
1591 Bradley Park Drive,"Columbus, Georgia 31904","1591 Bradley Park Drive, Columbus, Georgia 31904",32.5334212,-84.9691247
1013 East 16th Street,"Cordele, Georgia 31015","1013 East 16th Street, Cordele, Georgia 31015",31.9634023,-83.7657675
118 East Ponce de Leon Avenue,"Decatur, Georgia 30030","118 East Ponce de Leon Avenue, Decatur, Georgia 30030",33.7766773,-84.2951879
2950 Chapel Hill Road,"Douglasville, Georgia 30135","2950 Chapel Hill Road, Douglasville, Georgia 30135",33.7258455,-84.7346579
2172 US-441,"Dublin, Georgia 31021","2172 US-441, Dublin, Georgia 31021",32.490516,-82.9323977
3585  Peachtree Industrial Boulevard,"Duluth, Georgia 30096","3585  Peachtree Industrial Boulevard, Duluth, Georgia 30096",34.0001036,-84.1699732
3660 Marketplace Boulevard,"East Point, Georgia 30344","3660 Marketplace Boulevard, East Point, Georgia 30344",33.6591903,-84.4992957
440  Ernest W Barrett Pkwy NW,"Kennesaw, Georgia 30144","440  Ernest W Barrett Pkwy NW, Kennesaw, Georgia 30144",34.0141515,-84.5625098
1190 East Boone Avenue,"Kingsland, Georgia 31548-5304","1190 East Boone Avenue, Kingsland, Georgia 31548-5304",30.7910279,-81.6633914
3007 Panola Road,"Lithonia, Georgia 30038","3007 Panola Road, Lithonia, Georgia 30038",33.6999612,-84.1741951
121 Tom Hill Senior Boulevard,"Macon, Georgia 31210","121 Tom Hill Senior Boulevard, Macon, Georgia 31210",32.9001335,-83.6872418
2012 Eatonton Road,"Madison, Georgia 30650","2012 Eatonton Road, Madison, Georgia 30650",33.5578213,-83.4734822
3000 Windy Hill Road Southeast,"Marietta, Georgia 30067","3000 Windy Hill Road Southeast, Marietta, Georgia 30067",33.9042016,-84.4656003
1380  GA-20 West,"McDonough, Georgia 30253","1380  GA-20 West, McDonough, Georgia 30253",33.4247705,-84.1865353
1118 South Lewis Street,"Metter, Georgia 30439","1118 South Lewis Street, Metter, Georgia 30439",32.3789198,-82.0628643
104 East Winthrop Avenue,"Millen, Georgia 30442","104 East Winthrop Avenue, Millen, Georgia 30442",32.8034433,-81.9487506
555 Bullsboro Drive,"Newnan, Georgia 30265","555 Bullsboro Drive, Newnan, Georgia 30265",33.3928968,-84.7581595
5220 Town Center Boulevard,"Peachtree Corners, Georgia 30092","5220 Town Center Boulevard, Peachtree Corners, Georgia 30092",33.9793452,-84.2153071
907 US-80,"Pooler, Georgia 31322","907 US-80, Pooler, Georgia 31322",32.1109225,-81.2355333
2111 Pooler Parkway,"Pooler, Georgia 31322","2111 Pooler Parkway, Pooler, Georgia 31322",32.0792055,-81.2808895
1570 Holcomb Bridge Rd,"Roswell, Georgia 30076","1570 Holcomb Bridge Rd, Roswell, Georgia 30076",34.0195512,-84.3131129
3186 Lawrenceville-Suwanee Road,"Suwanee, Georgia 30024","3186 Lawrenceville-Suwanee Road, Suwanee, Georgia 30024",34.034228,-84.0521852
1204 U.S. 82,"Tifton, Georgia 31794-1794","1204 U.S. 82, Tifton, Georgia 31794-1794",31.4493801,-83.5325236
2112 West Hill Avenue,"Valdosta, Georgia 31601","2112 West Hill Avenue, Valdosta, Georgia 31601",30.8169298,-83.3206503
915 Ridgewalk Parkway,"Woodstock, Georgia 30188","915 Ridgewalk Parkway, Woodstock, Georgia 30188",34.1197258,-84.5254956
98-1005 Moanalua Rd,"Aiea, Hawaii 96701","98-1005 Moanalua Rd, Aiea, Hawaii 96701",21.382704,-157.9396425
98-1005 Moanalua Road,"Aiea, Hawaii 96701","98-1005 Moanalua Road, Aiea, Hawaii 96701",21.382704,-157.9396425
155 Pakaula St,"Kahului, Hawaii 96732","155 Pakaula St, Kahului, Hawaii 96732",20.8774701,-156.4564139
45-285  Kaneohe Bay Drive,"Kaneohe, Hawaii 96744","45-285  Kaneohe Bay Drive, Kaneohe, Hawaii 96744",21.4066847,-157.7888702
1426 South Entertainment Ave.,"Boise, Idaho 83709-8306","1426 South Entertainment Ave., Boise, Idaho 83709-8306",43.5916869,-116.2795318
240 East 5th Street North,"Burley, Idaho 83318","240 East 5th Street North, Burley, Idaho 83318",42.5624585,-113.7907096
3458 N Fruitland Lane,"Coeur d'Alene, Idaho 83815-9365","3458 N Fruitland Lane, Coeur d'Alene, Idaho 83815-9365",47.7088111,-116.7929655
940 Pier View Drive,"Idaho Falls, Idaho 83402-4918","940 Pier View Drive, Idaho Falls, Idaho 83402-4918",43.4851412,-112.0520928
3872 Ditto Creek Rd,"Mountain Home, Idaho 83647","3872 Ditto Creek Rd, Mountain Home, Idaho 83647",43.1705348,-115.7455288
2015 Neilsen Point Place,"Twin Falls, Idaho 83301-4071","2015 Neilsen Point Place, Twin Falls, Idaho 83301-4071",42.5983499,-114.4557012
400 South Randall Road,"Algonquin , Illinois 60102","400 South Randall Road, Algonquin , Illinois 60102",42.1702865,-88.3388088
808 IL-59,"Aurora, Illinois 60504","808 IL-59, Aurora, Illinois 60504",41.7678713,-88.2094193
755 E. Boughton Road,"Bolingbrook, Illinois 60440-2250","755 E. Boughton Road, Bolingbrook, Illinois 60440-2250",41.7212148,-88.0360166
1550 Deerfield Parkway,"Buffalo Grove, Illinois 60089","1550 Deerfield Parkway, Buffalo Grove, Illinois 60089",42.1692028,-87.9243636
2401 North Prospect Avenue,"Champaign, Illinois 61822-1233","2401 North Prospect Avenue, Champaign, Illinois 61822-1233",40.1451126,-88.2608244
4433  South Pulaski Road,"Chicago, Illinois 60632","4433  South Pulaski Road, Chicago, Illinois 60632",41.8124225,-87.7219205
2656 North Elston Avenue,"Chicago, Illinois 60647","2656 North Elston Avenue, Chicago, Illinois 60647",41.928476,-87.6850778
3030 North Broadway,"Chicago, Illinois 60657","3030 North Broadway, Chicago, Illinois 60657",41.9372007,-87.6448465
225 North Columbus Drive,"Chicago, Illinois 60601-7910","225 North Columbus Drive, Chicago, Illinois 60601-7910",41.8864623,-87.6201026
1457 North Halstead Ave,"Chicago, Illinois 60610","1457 North Halstead Ave, Chicago, Illinois 60610",41.9084901,-87.6472734
Building 840 O'Hare Int'l Airport,"Chicago, Illinois 60666","Building 840 O'Hare Int'l Airport, Chicago, Illinois 60666",41.9802588,-87.9089858
760 E 111th St,"Chicago, Illinois 60628","760 E 111th St, Chicago, Illinois 60628",41.6929345,-87.6016265
1100 South Canal Street,"Chicago, Illinois 60607","1100 South Canal Street, Chicago, Illinois 60607",41.8691164,-87.6399217
217 N Bluff Road,"Collinsville, Illinois 62234","217 N Bluff Road, Collinsville, Illinois 62234",38.6734607,-90.0135535
4201 167th St.,"Country Club Hills, Illinois 60478-2017","4201 167th St., Country Club Hills, Illinois 60478-2017",41.5837807,-87.7217698
100 Watters Drive,"Dwight, Illinois 60420","100 Watters Drive, Dwight, Illinois 60420",41.0932158,-88.4424317
1041 Century Dr,"Edwardsville, Illinois 62025","1041 Century Dr, Edwardsville, Illinois 62025",38.7877352,-89.9813053
1200 N. Keller Drive,"Effingham, Illinois 62401-4523","1200 N. Keller Drive, Effingham, Illinois 62401-4523",39.137264,-88.5639304
815 S Randall Rd,"Elgin, Illinois 60123","815 S Randall Rd, Elgin, Illinois 60123",42.0121194,-88.3339006
1800 Maple Avenue,"Evanston, Illinois 60201","1800 Maple Avenue, Evanston, Illinois 60201",42.0500369,-87.6850691
9200 South Western Avenue,"Evergreen Park, Illinois 60805","9200 South Western Avenue, Evergreen Park, Illinois 60805",41.7246667,-87.6855404
3800 Vollmer Road,"Flossmoor, Illinois 60422","3800 Vollmer Road, Flossmoor, Illinois 60422",41.530527,-87.7105679
1043 South Crescent Street,"Gilman, Illinois 60938","1043 South Crescent Street, Gilman, Illinois 60938",40.7530333,-87.9964781
1200 Milwaukee Avenue,"Glenview, Illinois 60025","1200 Milwaukee Avenue, Glenview, Illinois 60025",42.0785156,-87.8617057
2099 Skokie Valley Road,"Highland Park, Illinois 60035","2099 Skokie Valley Road, Highland Park, Illinois 60035",42.191958,-87.8251936
2701 Plainfield Rd,"Joliet, Illinois 60435","2701 Plainfield Rd, Joliet, Illinois 60435",41.5772082,-88.1536877
27555 IL-120,"Lakemoor, Illinois 60051","27555 IL-120, Lakemoor, Illinois 60051",42.3208887,-88.1687683
2603  The Hill Ave,"Marion, Illinois 62959","2603  The Hill Ave, Marion, Illinois 62959",37.7444053,-88.9618568
11305 W Lincoln Hwy,"Mokena, Illinois 60448","11305 W Lincoln Hwy, Mokena, Illinois 60448",41.4994579,-87.8902814
1409 S 42nd St,"Mt. Vernon, Illinois 62864","1409 S 42nd St, Mt. Vernon, Illinois 62864",38.3007613,-88.9431895
222 Potomac Blvd.,"Mt. Vernon, Illinois 62864-6750","222 Potomac Blvd., Mt. Vernon, Illinois 62864-6750",38.316756,-88.9552959
1900  East College Avenue,"Normal, Illinois 61761","1900  East College Avenue, Normal, Illinois 61761",40.5125419,-88.9464402
610 West Raab Rd,"Normal, Illinois 61761","610 West Raab Rd, Normal, Illinois 61761",40.5325299,-88.9968755
"11 Uptown Cir, 3rd Floor","Normal, Illinois 61761-8701","11 Uptown Cir, 3rd Floor, Normal, Illinois 61761-8701",40.5084804,-88.9849829
151 Hansen Blvd,"North Aurora, Illinois 60542-8986","151 Hansen Blvd, North Aurora, Illinois 60542-8986",41.8044642,-88.3706729
840-109 Willow Road,"Northbrook, Illinois 60062","840-109 Willow Road, Northbrook, Illinois 60062",42.1061831,-87.8019992
1600  16th Street,"Oak Brook, Illinois 60523","1600  16th Street, Oak Brook, Illinois 60523",41.8546593,-87.9592862
2700 US-34,"Oswego, Illinois 60543","2700 US-34, Oswego, Illinois 60543",41.6994485,-88.3106704
4125 N Sheridan Road #20,"Peoria, Illinois 61614","4125 N Sheridan Road #20, Peoria, Illinois 61614",40.7386288,-89.605739
1651 Midtown Road,"Peru, Illinois 61354-1267","1651 Midtown Road, Peru, Illinois 61354-1267",41.3476173,-89.1275269
330 S 7th Street,"Rochelle, Illinois 61068","330 S 7th Street, Rochelle, Illinois 61068",41.9166631,-89.069134
3155   McFarland Road,"Rockford, Illinois 61114","3155   McFarland Road, Rockford, Illinois 61114",42.3073181,-88.9749072
7200 Harrison Ave,"Cherry Valley, Illinois 61112-1017","7200 Harrison Ave, Cherry Valley, Illinois 61112-1017",42.2461735,-88.9757903
1301 Meijer Drive,"Rolling Meadows, Illinois 60008-4205","1301 Meijer Drive, Rolling Meadows, Illinois 60008-4205",42.0479136,-87.996285
5220 Fashion Outlets Way,"Rosemont, Illinois 60018","5220 Fashion Outlets Way, Rosemont, Illinois 60018",41.9751989,-87.8669441
5507 Touhy Avenue,"Skokie, Illinois 60077","5507 Touhy Avenue, Skokie, Illinois 60077",42.0086734,-87.7632642
100 West Higgins Road,"South Barrington , Illinois 60010","100 West Higgins Road, South Barrington , Illinois 60010",42.0734969,-88.1818606
3801 S. MacArthur Blvd.,"Springfield, Illinois 62711-6436","3801 S. MacArthur Blvd., Springfield, Illinois 62711-6436",39.7499721,-89.6710353
